NOM DU MUSEE,ADR,CP,VILLE,SITWEB,latitude,longitude
Musée de la Folie Marco,"30, Rue du Dr Sultzer",67140,BARR,http://www.barr.fr,48.410188,7.45112
Musée de la Poterie,"2, rue de Kuhlendorf",67660,BETSCHDORF,http://www.betschdorf.fr/tourisme/visiter_betschdrof/musee_poterie.php,48.900331,7.914441
Musée de Bouxwiller et du Pays de Hanau,"2, Place du Château

Halle aux Blés",67330,BOUXWILLER,http://www.musee-pays-hanau.webmuseo.com,48.824975,7.482776
Musée Alsacien,"1, place Joseph Thierry",67500,HAGUENAU,http://www.ville-haguenau.fr/pages/culture/musee.htm,48.814611,7.789527
Musée Historique,"9, Rue du Maréchal Foch

B.P. 40261",67504,HAGUENAU Cedex,http://www.ville-haguenau.fr/pages/culture/musee.htm ou www.museumspass.com/dn_musees-haguenau/,48.812831,7.791479
Musée de la Chartreuse,"4, Cour des Chartreux",67120,MOLSHEIM,http://www.chartreuse-molsheim.info,48.54278,7.49023
Maison de l'Archéologie des Vosges du Nord,"44, Avenue Foch",67110,NIEDERBRONN-LES-BAINS,http://www.musee-niederbronn.fr,48.947443,7.650429
Musée de l'Image Populaire de Pfaffenhoffen,"24, rue du Docteur Albert Schweitzer",67350,PFAFFENHOFFEN,http://www.pfaffenhoffen.org ou http://www.musee-image-populaire.webmuseo.com/,48.844809,7.611262
Musée du Fer,"9, rue Jeanne d'Arc",67110,REICHSHOFFEN,musee-reischshoffen.webmuseo.com ou www.lacastine.com,48.932379,7.665286
Musée du Château des Rohan,"Château des Rohans

Place du Général de Gaulle",67700,SAVERNE,http://www.louise weiss.org,48.741895,7.362216
Musée des Arts Décoratifs,"Palais Rohan

2, Place du Château",67000,STRASBOURG,http://www.musees-strasbourg.eu,48.581323,7.751359
Musée Tomi Ungerer,"Villa Greiner

2, avenue de la Marseillaise",67000,STRASBOURG,http://www.musees-strasbourg.eu,48.585556,7.755619
Musée des Beaux-Arts,"Palais Rohan

2, Place du Château",67000,STRASBOURG,http://www.musees.strasbourg.eu,48.581323,7.751359
Musée Historique,"2, Rue du Vieux Marché aux Poissons",67000,STRASBOURG,http://www.musees-strasbourg.eu,48.580496,7.74967
Musée Alsacien,"23-25, Quai Saint-Nicolas",67000,STRASBOURG,http://www.musees-strasbourg.eu,48.57862,7.748812
Musée Archéologique,"Palais Rohan

2, Place du Château",67000,STRASBOURG,http://www.musees.strasbourg.eu,48.581323,7.751359
Musée de l'Œuvre Notre-Dame,"3, Place du Château",67000,STRASBOURG,http://www.musees-strasbourg.eu,48.580997,7.751064
Cabinet des Estampes et des Dessins,"5, Place du Château",67000,STRASBOURG,http://www.musees-strasbourg.eu,48.581108,7.750893
Musée d'Art Moderne et Contemporain de Strasbourg,1 place Hans Jean Arp,67000,STRASBOURG,http://www.musees-strasbourg.eu,48.580058,7.736546
Musée Zoologique de l'Université Louis Pasteur et de la Ville de Strasbourg,"29, Boulevard de la Victoire",67000,STRASBOURG,http://www.musees.strasbourg.eu,48.582685,7.764696
Musée J.F. Oberlin,"25, Montée Oberlin",67130,WALDERSBACH,http://www.musee-oberlin.com,48.414761,7.214894
Musée Lalique,40 rue du Hochberg,67290,WINGEN-SUR-MODER,http://www.musee-lalique.com,48.927033,7.361922
Musée Westercamp,"3, rue du Musée",67160,WISSEMBOURG,http://www.musee-wissembourg.webmuseo.com ou www.ville-wissembourg.eu,49.038815,7.944344
Musée de la Bataille du 6 Août 1870,"2, Rue du Moulin",67360,WOERTH,http://www.woerth-en-alsace.com,48.938618,7.747992
Musée Sundgauvien d'Altkirch,"1, Rue de l'Hôtel de Ville",68130,ALTKIRCH,,47.623494,7.23739
Musée Gallo-Romain,Place de la Mairie,68600,BIESHEIM,http://www.ville-biesheim.fr/museegr.html,48.041378,7.547923
Musée de la Porte de Thann,"1, Rue de Thann",68700,CERNAY,http://histoire-cernay.perso.sfr.fr ou www.musees-alsace.org,47.809504,7.174289
Musée d'Unterlinden,"1, rue Unterlinden",68000,COLMAR,http://www.musee-unterlinden.com,48.079733,7.354974
Musée Bartholdi,"30, Rue des Marchands",68000,COLMAR,http://www.musee-bartholdi.com ou www.colmar.fr ou www.culture.fr,48.076747,7.357746
Musée d'Histoire Naturelle et d'Ethnographie de Colmar,"11, Rue Turenne",68000,COLMAR,http://www.museumcolmar.org,48.073594,7.35872
Musée Théodore Deck et des Pays du Florival,"1, Rue du Quatre Février",68500,GUEBWILLER,http://www.ville-guebwiller.fr/musee-deck/,47.905522,7.214504
Musée Historique et Militaire de Huningue,"6, rue des Boulangers",68330,HUNINGE,,47.591513,7.584985
Musée d'Histoire Local,"64, avenue du Général de Gaulle",68240,KAYSERSBERG,http://www.ville-kaysersberg.fr,48.139072,7.261441
Cité du Train,"2, rue Alfred de Glehn",68200,MULHOUSE,http://www.citedutrain.com,47.751091,7.293676
Musée Historique,"4, Rue des Archives",68100,MULHOUSE,http://www.musees-mulhouse.fr/musee-historique/collections.html,47.746535,7.339544
Musée du Sapeur Pompier,"Association des Amis du Musée

4, Boulevard de la Marseillaise",68100,MULHOUSE,http://musee.spmulhouse.free.fr,47.757665,7.335541
Musée des Beaux-Arts,"4, Place Guillaume-Tell",68100,MULHOUSE,http://www.musees-mulhouse.fr/musee-des-beaux-arts/collections.html,47.745774,7.338271
Musée de l'Impression sur Etoffes,"14, rue Jean-Jacques Henner

B.P. 1468",68072,MULHOUSE CEDEX,http://www.musee-impression.com,47.74415,7.343298
Musée National de l'Automobile - Collection Schlumpf,"192, Avenue de Colmar

CS 91096",68051,MULHOUSE Cedex,http://www.collection-schlumpf.com,47.760209,7.327993
Musée EDF Electropolis,"55, rue du Pâturage

B.P. 52463",68057,MULHOUSE Cedex,electropolis.edf.com,47.749347,7.295182
Musée Minéralogique de la Société Industrielle de Mulhouse,"3, Avenue Alfred-Werner",68093,MULHOUSE Cedex,,47.732773,7.312173
Musée Vauban,"7, Place de la Porte de Belfort",68600,NEUF-BRISACH,http://www.neuf-brisach.fr,48.016059,7.525831
Maison du Sundgau - Musée Paysan,"10, rue Principale",68480,OLTINGUE,http://musee.paysan.free.fr/,47.492827,7.391275
Musée du Dolder,"57, Rue du Général de Gaulle",68340,RIQUEWIHR,Site des musées d'Alsace,48.16694,7.297357
Musée du Papier Peint,"La Commanderie  28, rue Zuber

B.P. 41",68171,RIXHEIM Cedex,http://www.museepapierpeint.org,47.74438,7.397815
Musée des Amis de Thann,"24, Rue Saint Thiébaut",68800,THANN,http://www.ville-thann.fr - http://www.genealogiethaznn.org,47.812283,7.101737
Musée d'Anthropologie du Tabac d'Intérêt National,"Maison Peyrarède

Place du Feu",24100,BERGERAC,http://www.bergerac.fr/EspCulture/sitetabac/index.htm,44.849787,0.483514
Château de Bourdeilles,Bourdeilles,24310,BOURDEILLES,Site des musées aquitains,45.316682,0.565763
Musée Fernand Desmoulin,Boulevard Charlemagne,24310,BRANTOME,Site des musées aquitains ou http://www.perigord-dronne-belle.fr,45.364629,0.647342
Musée-Aquarium,Site Bella-Riva,24100,CREYSSE,,44.854577,0.564797
Musée Paul Reclus,Place de la Halle,24250,DOMME,,44.803002,1.214222
Musée Eugène Le Roy et des Vieux Métiers,Place Bertran de Borne,24290,MONTIGNAC,,45.063871,1.163492
Musée des Arts et Traditions Populaires du Périgord,"2, Rue Raoul Grassin",24400,MUSSIDAN,http://www.museevoulgre.cjb.net,45.037552,0.362147
Musée Départemental de la Poupée et du Jouet,Avenue du Général Leclerc,24300,NONTRON,Site des musées aquitains,45.527035,0.660711
Musée d'Art et d'Archéologie du Périgord (MAAP),"22, Cours Tourny",24000,PERIGUEUX,http://www.perigueux-maap.fr/,45.186039,0.72395
Musée Gallo-Romain de Vesunna,"Parc de Vésone

20, Rue du 26ème Régiment d'Infanterie",24000,PERIGUEUX,http://www.vesunna.fr ou http://www.perigueux-vesunna.fr/,45.179999,0.71269
Musée Militaire - Souvenir du Périgord,"32, Rue des Farges",24000,PERIGUEUX,http://www.museemilitaire-perigord.fr,45.183285,0.720943
Musée du Site Médiéval,,24440,SAINT-AVIT-SENIEUR,,44.756834,0.842382
Musée Municipal de Blasimon,Mairie de Blasimon,33540,BLASIMON,,44.747676,-0.092939
Musée d'Art et d'Histoire du Pays Blayais,Citadelle de Blaye,33390,BLAYE,Site des musées aquitains,45.126379,-0.663606
Centre National Jean Moulin,"Direction des établissements culturels

48, rue Vital Carles",33000,BORDEAUX,Site de la ville : www.bordeaux.fr,44.838651,-0.577869
CAPC Musée d'Art Contemporain de Bordeaux,"Entrepôt

7, Rue Ferrère",33000,BORDEAUX,http://www.capc-bordeaux.fr ou www.bordeaux.fr,44.848186,-0.572137
Musée d'Aquitaine,"20, Cours Pasteur",33000,BORDEAUX,http://www.musee-aquitaine-bordeaux.fr,44.835543,-0.575205
Musée des Beaux-Arts,"20, Cours D'Albret",33000,BORDEAUX,http://www.musba-bordeaux.fr,44.838056,-0.579413
Musée des Arts Décoratifs,"Hôtel de Lalande

39, Rue Bouffard",33000,BORDEAUX,Site de la ville -  www.mairie-bordeaux.fr,44.838956,-0.579686
Muséum d'Histoire Naturelle de Bordeaux,"5, Place Bardineau",33000,BORDEAUX,http://www.mairie-bordeaux.fr,44.848154,-0.580085
Musée Goupil,"Conservatoire de l'Image Industrielle

20 Cours Pasteur",33000,BORDEAUX,Site de la ville,44.835543,-0.575205
Musée de la Voiture à Cheval,"3, Place de la Citadelle",33710,BOURG-SUR-GIRONDE,Site des musées d'aquitaine,45.039708,-0.560791
Musée Municipal,Esplanade Charles de Gaulle,33190,LA REOLE,,44.581128,-0.041074
Musée des Beaux-Arts et d'Archéologie,"42, Place  Abel Surchamp",33500,LIBOURNE,http://www.musees-libourne.org,44.914487,-0.245068
Musée Historique ou du Vieux Libourne (Robin),,33500,LIBOURNE,,44.91759,-0.244124
Musée Historique de l'Hydravion,"332, Avenue Louis Breguet",40600,BISCARROSSE,http://www.hydravions-biscarrosse.com,44.388887,-1.182563
Musée de Borda,"Mairie de Dax Service du musée Borda

14, Rue Saint Pierre

B.P. 50344",40107,DAX Cédex,http://www.dax.fr/musee-de-borda - Site des musées aquitains,43.708837,-1.051437
Musée Départemental de Préhistoire,Abbaye d'Arthous,40300,HASTINGUES,http://www.culture-commune.fr - www.arthous.landes.org/,43.524706,-1.121479
Atelier-Musée  (Ecomusée de la Grande Landes),"101, Rue Jacques Desert",40043,LUXEY,Site du parc - www.parc-landes-de-gascogne.fr,44.263529,-0.518812
Musée Despiau-Wlérick,"6, Place Marguerite de Navarre",40000,MONT-DE-MARSAN,http://www.mont-de-marsan.org/decouvrir/decouv_muse.html ou Site des musées aquitains,43.892599,-0.498893
Musée de la Chalosse,"Domaine de Carcher

480, Chemin du Sala

B.P. 24",40380,MONTFORT-EN-CHALOSSE,http://www.museedelachalosse.fr,43.715749,-0.833916
Ecomusée de la Grande Lande,Route de Soférino,40630,SABRES,http://www.parc-landes-de-gascogne.fr,44.149054,-0.750737
Musée Municipal,Rue du Général Lamarque,40500,SAINT-SEVER,http://www.saint-sever.fr/culture_musee.htm,43.758576,-0.572238
Musée Départemental de la Faïence et des Arts de la table,"2378, Route d'Hagetmau",40320,SAMADET,http://www.museesamadet.landes.org,43.641006,-0.510832
Musée Municipal du Lac,"112, Place de la Mairie",40460,SANGUINET,http://www.ville-sanguinet.fr,44.483691,-1.075968
Musée des Beaux-Arts,Place du Dr Pierre Esquirol,47916,AGEN Cedex 9,http://www.agen.fr/musee,44.202967,0.615493
Musée Municipal Albert Marzelles,"15, Rue Abel Boyé",47200,MARMANDE,Site des musées aquitains et site de la ville,44.498918,0.166067
Musée du Liège et du Bouchon,Rue du Puits Saint Côme,47170,MEZIN,http://www.cg47.fr,44.056911,0.25639
Musée du Château Henri IV,Rue Henri IV,47600,NERAC,Site des musées aquitains ou www.nerac.fr,44.135138,0.33973
Musée de Préhistoire Mésolithique Laurent Coulonges,Le Bourg,47500,SAUVETERRE-LA-LEMANCE,http://www.sauveterre-prehistoire.fr ou www.tourisme-fumelois.fr,44.597508,1.016896
Musée Municipal (Moulin de Gajac),"2, Rue du Jardins",47300,VILLENEUVE-SUR-LOT,Site de la ville,44.405095,0.707815
Musée Municipal,Rue de l'Eglise,64260,ARUDY,http://www.museearudy.com ou www.ot-arudy.fr,43.105938,-0.42719
Musée Bonnat-Helleu - Musée des Beaux-Arts de Bayonne,"5, Rue Jacques-Laffitte",64100,BAYONNE,http://www.museebonnat.bayonne.fr,43.49213,-1.472317
Musée Basque et de l'Histoire de Bayonne,"37, Quai des Corsaires",64100,BAYONNE,http://www.musee-basque.com,43.491074,-1.473873
Muséum d'Histoire Naturelle,"Hôtel de ville

1, Avenue Maréchal Leclerc",64100,BAYONNE,http://www.museum.bayonne.fr,43.493388,-1.48047
Musée Municipal de Guéthary,"Parc municipal André Narbaits 

117, Avenue du Général de Gaulle",64210,GUETHARY,http://www.musee-de-guethary.fr/ OU Site des musées aquitains,43.421516,-1.607796
Musée Municipal des Beaux-Arts,Rue Mathieu Lalanne,64000,PAU,http://musee.ville-pau.fr,43.297273,-0.364361
Musée National du Château,,64000,PAU,http://www.musee-chateau-pau.fr,43.301752,-0.369218
Musée Béarnais,"Association Régionaliste de Pyrénées

7 avenue Henri Faisans",64000,PAU,,43.299954,-0.361253
Musée Bernadotte,"8, Rue Tran",64000,PAU,site de la ville,43.297209,-0.372526
Musée Charles-Louis Philippe,"5, Rue Charles-Louis Philippe",03350,CERILLY,http://www.mairie-cerilly.fr,46.617913,2.823245
Musée Municipal de Gannat,Place Rantian,03800,GANNAT,http://www.bassin-gannat.com/,46.102147,3.19633
Musée Rural de la Sologne Bourbonnaise,"Michel LABONNE

Secrétaire des Amis du Muséee

149, Route de Bourgogne",03400,IZEURE,,46.57337,3.359803
Musée des Musiques Populaires - MuPop,"3, Rue Notre Dame",03100,MONTLUCON,http://www.mupop.fr,46.34088,2.605558
Musée Anne de Beaujeu,"1, Avenue Victor Hugo

B.P. 1669",03016,MOULINS Cedex,http://www.mab.allier.fr,46.568527,3.333844
Musée Municipal de Souvigny,Place Aristide Briand,03210,SOUVIGNY,site de la ville www.ville-souvigny.com,46.534768,3.192475
Musée des Arts D'Afrique et D'Asie,"11, Rue Mounin",03200,VICHY,http://www.musee-aaa.com,46.128546,3.420555
Musée des Sciences,Château Saint Etienne,15000,AURILLAC,http://www.aurillac.fr,44.933328,2.444943
Musée d'Art et d'Archéologie,"Centre Culturel Pierre Mendès France

37, rue des Carmes",15012,AURILLAC Cedex,http://www.ville-aurillac.fr,44.925394,2.441947
Ecomusée de Margeride-Haute-Auvergne,"La Tour

Jardin de Saint-Martin",15320,RUYNES-EN-MARGERIDE,http://www.saint-flour.fr/culture/musees/ecomusee-margeride.php,45.000522,3.224427
Musée d'art et d'histoire Alfred Douët,"Maison consulaire

17, Place d'Armes",15100,SAINT-FLOUR,Site de la ville,45.034016,3.095067
Musée de la Haute Auvergne,"Palais épiscopal

1, Place d'Armes",15100,SAINT-FLOUR,http://www.auvergne-centrefrance.com/geotouring/musees/detail/mus154.htm,45.033137,3.094858
Musée de Paléontologie,Place de l'église,43380,CHILHAC,http://www.museechilhac.fr,45.158926,3.432601
Musée des Arts et Traditions Populaires de Haute Loire,,43100,LAVAUDIEU,Site des amis de Lavaudieu - www.abbayedelavaudieu.fr,45.274699,3.434854
Musée des Manufactures de Dentelles,"14, avenue de la Gare",43130,RETOURNAC,http://www.ville-retournac.fr/musee/francais/indexfr.htm,45.202545,4.035302
Musée de la Ferblanterie,,43300,SAINT ARCONS D'ALLIER,,45.090036,3.574618
Musée de la Dentelle,"53, Route Nationale",63220,ARLANC,http://www.arlanc.com/musee_dentelle.htm,45.414373,3.724421
Musée d'Archéologie Bargoin,"45, rue Ballainvilliers",63000,CLERMONT-FERRAND,http://www.clermont-ferrand.fr/-Musee-Bargoin-.html,45.774229,3.0869
Muséum d'Histoire Naturelle Henri-Lecoq,"15, rue Bardoux",63000,CLERMONT-FERRAND,http://www.museelecoq.clermont-ferrand.fr ou www.clermont-ferrand.fr/-Museum-Henri-Lecoq-.html,45.774138,3.088299
Musée Départemental de la Céramique Gallo-Romaine,"39, Rue de la République

B.P. 30",63190,LEZOUX,"www.puydedome.fr rubrique ""découvrir le Puy-de-Dôme""",46.632156,1.066913
Musée des Pénitents Blancs,Place de l'Eglise,63940,MARSAC-EN-LIVRADOIS,http://www.livradois.com/marsac/penitent/index.htm,45.478841,3.728706
Musée Paléontologique,Le Bourg,63560,MENAT,,46.103787,2.904038
Musée Lapidaire,Place de l'Abbaye,63200,MOZAC,http://www.riom-communaute.fr,45.89205,3.094625
Musée Municipal,Parc du Prélong,63790,MUROL,http://www.musee-murol.net/Musee.htm,45.574781,2.943256
Musée Régional d'Auvergne,"10 bis, Rue Delile",63200,RIOM,http://www.riom-communaute.fr,45.895037,3.116254
Musée Francisque Mandet,"14, Rue de l'Hôtel de Ville",63200,RIOM,http://www.riom-communaute.fr,45.893874,3.116508
Musée Municipal de la Coutellerie,"58, Rue de la Coutellerie",63300,THIERS,http://www.ville-thiers.fr/Musee-de-la-Coutellerie,45.852379,3.548141
Musée Municipal Marcel Sahut,"2, rue des Ecoles",63530,VOLVIC,http://www.volvic-tourisme.com/HTML/sites/site_musee.htm,45.860585,3.024306
Muséoparc - Alésia,"1, Route des Trois Ormeaux",21150,ALISE-SAINTE-REINE,http://www.alesia.com,47.536592,4.469595
Musée des Beaux-Arts,"Porte Marie de Bourgogne

6, boulevard Perpreuil",21200,BEAUNE,http://www.musees-bourgogne.org ou www.beaune.fr,47.02097,4.839394
Musée E.J Marey,Hôtel de Ville,21200,BEAUNE,http://www.musees-bourgogne.org,47.026213,4.839367
Musée du Vin de Bourgogne,"Hôtel des Ducs

Rue d'Enfer",21200,BEAUNE,http://www.musees-bourgogne.org ou www.beaune.fr,47.023506,4.836339
Musée de la Sidérurgie Grande Forge,La Grande Forge,21500,BUFFON,,47.649618,4.260887
Musée du Pays Châtillonnais - Trésor de Vix,"14, Rue de la Libération",21400,CHATILLON-SUR-SEINE,http://www.musee-vix.fr,47.863812,4.574628
Musée Magnin,"4, rue des Bons Enfants",21000,DIJON,http://www.musee-magnin.fr,47.320958,5.042188
"Musée de la Vie Bourguignonne, Perrin de Puycousin","Monastère des Bernardines

15-17, rue Sainte-Anne",21000,DIJON,http://www.musees-bourgogne.org,47.317415,5.037131
Musée François Rude,"8, Rue Vaillant",21000,DIJON,http://mba.dijon.fr ou www.ville-dijon.fr,47.321222,5.04395
Musée d'Art Sacré,"Monastère des Bernardines

15-17, rue Sainte-Anne",21000,DIJON,Site des musées de Bourgogne,47.317415,5.037131
Muséum - Jardin des Sciences,"Parc de l'Arquebuse

14, Rue Jehan de Marville - 1 Avenue Albert 1er",21000,DIJON,http://www.dijon.fr,47.322449,5.015052
Musée Archéologique,"5, Rue du Docteur Maret

CS 73310",21033,DIJON Cedex,Site des musées de Bourgogne - www.musees-bourgogne.org,47.32236,5.034429
Musée Noisot,Mairie de Fixin,21220,FIXIN,Site des musée de Bourgogne,47.243639,4.989806
Musée des Beaux-Arts,"Chapelle des Ursulines

Rue Piron",21500,MONTBARD,http://www.montbard.com/,47.624475,4.336854
Musée Municipal,"12, Rue Camille Rodier",21700,NUITS-SAINT-GEORGES,Site des musées de Bourgogne,47.138661,4.950405
Musée Municipal François Pompon,"3, Place du Docteur Roclore",21210,SAULIEU,Site des musées de Bourgogne ou www.saulieu.fr,47.279459,4.229714
Musée Municipal,"3, Rue Jean-Jacques Collenot",21140,SEMUR-EN-AUXOIS,Site des musées de Bourgogne,47.490173,4.336447
Musée du Septennat,"6, rue du Château",58120,CHATEAU-CHINON,http://www.cg58.fr,47.06721,3.934311
Musée du Costume,"16-18, rue Saint Christophe",58120,CHATEAU-CHINON,http://www.cg58.fr/patrimoi/costu.htm,47.066701,3.933691
Musée d'Art et d'Histoire Romain Rolland,Avenue de la République,58500,CLAMECY,http://www.musees-bourgogne.org,47.460717,3.520761
Musée de la Loire de Cosne sur Loire,Place de la Résistance,58200,COSNE-SUR-LOIRE,http://www.mairie-cosnessurloire.fr/Services/MUSEEE/ACCUEIL.htm,47.410594,2.922716
Musée Municipal,"33, Rue des Chapelains",58400,LA CHARITE-SUR-LOIRE,Site de l'OTSI ou des musées de Bourgogne,47.178733,3.015633
Musée de la Mine,"1, Avenue de la République",58260,LA MACHINE,http://www.cc-loire-foret.fr ou www.cg58.fr et Site des musées de Bourgogne,46.889225,3.463514
Musée de la Faïence Frédéric Blandin,"16, rue Saint-Genest",58000,NEVERS,http://www.musee-faience.nevers.fr,46.98629,3.155037
Musée Ernest Guédon,"17, quai Jules-Pabiot",58150,POUILLY-SUR-LOIRE,,47.285947,2.949487
Musée du Grès de Puisaye,Château de Saint-Amand,58310,SAINT-AMAND-EN-PUISAYE,http://www.cg58.fr - Site musées de Bourgogne,47.536865,3.067214
Musée Auguste Grasset,Place de la Mairie,58210,VARZY,http://www.cg58.fr ou www.musees-bourgogne.org,47.359969,3.388063
Museum d'Histoire Naturelle Jacques de La Comble,"14, Rue Saint-Antoine",71400,AUTUN,http://www.autun.com/tourisme/museum.php,46.947996,4.301812
Musée Lapidaire Saint-Nicolas,Rue Saint Nicolas,71400,AUTUN,,46.955532,4.300124
Musée Rolin,"5, rue des Bancs",71400,AUTUN,http://www.autun.com ou Site des musées de Bourgogne,46.961209,4.305784
Musée Verger Tarin,Rue des Sous-Chantres,71400,AUTUN,,46.944133,4.299862
Musée de la Mine,"34, rue du Bois Clair",71450,BLANZY,http://www.ecomusee-creusot-montceau.fr Site des musées de Bourgogne et de l'écomusée,46.701488,4.382962
Musée Saint-Nazaire,Rue St Nazaire,71140,BOURBON-LANCY,Site des musées de Bourgogne ou www.bourbon-lancy.com/musees_fr_02_07_02.html,46.624461,3.770111
Musée Nicéphore Niepce,"28, Quai des Messageries",71100,CHALON-SUR-SAONE,http://www.museeniepce.com,46.780045,4.855727
Musée Denon,Place de l'hotel de ville,71100,CHALON-SUR-SAONE,site des musées de Bourgogne,46.78089,4.853022
Musée du Prieuré de Charolles,Rue du Prieuré,71120,CHAROLLES,Site des musées de Bourgogne ou site de la ville - http://www.ville-charolles.fr/musee-du-prieure,46.432494,4.279233
Musée René Davoine,"32, rue René Davoine",71120,CHAROLLES,http://www.institut-charolais.com (site de l'office du tourisme),46.4329,4.271817
"L'Atelier d'un Journal"" de Louhans - Musée Municipal","29, Rue des Dodânes",71500,LOUHANS,http://www.ecomusee-de-la-bresse.com ou site des musées de Bourgogne,46.630156,5.224455
Musée des Ursulines,"5, rue des Ursulines",71000,MACON,http://www.macon.fr/Culture-sports-et-loisirs/Les-Musees-de-Macon,46.307159,4.832892
Musée Lamartine,"41, Rue Sigorgne",71000,MACON,http://www.macon.fr/Culture-sports-et-loisirs/Les-Musees-de-Macon,46.305187,4.832539
Musée de la Tour du Moulin,"7-9, rue de la Tour",71110,MARCIGNY,http://www.marcigny.fr/musee-de-la-tour-du-moulin - http://tourdumoulin.blogspot.com,46.274545,4.043191
Musée Eucharistique du Hiéron,"13, Rue de la Paix",71600,PARAY-LE-MONIAL,http://www.musee-hieron.fr,46.451822,4.123021
Musée Municipal,Avenue Jean-Paul II,71600,PARAY-LE-MONIAL,,46.450634,4.119775
Ecomusée de la Bresse Bourguignonne,Château départemental,71270,PIERRE-DE-BRESSE,http://www.ecomusee-de-la-bresse.com,46.88301,5.262064
Musée Départemental du Compagnonnage,Le Bourg,71570,ROMANECHE-THORINS,http://www.cg71.fr/musee_compagnonnage/ ou http://musee-compagnonnage.cg71.fr,46.186127,4.741798
Musée du Terroir,Le Champ Bressan,71470,ROMENAY,,46.501598,5.06602
Musée Départemental de Préhistoire de Solutré,,71960,SOLUTRE-POUILLY,http://www.musees-bourgogne.org,46.294797,4.736366
Hôtel Dieu - Musée Greuze,"21, rue de l'hôpital",71700,TOURNUS,Site des musées de Bourgogne,46.562137,4.910839
Musée Bourguignon -  Perrin de Puycousin,"8, Place de l'Abbaye",71700,TOURNUS,Site des musées de Bourgogne,46.566134,4.909274
Maison du Blé et du Pain,"2, Rue de l'Egalité",71350,VERDUN-SUR-LE-DOUBS,http://www.verdunsurledoubs.fr rubrique culture ou www.ecomusee-de-la-bresse.com,46.899606,5.021369
Musée Leblanc-Duvernois,"9 bis, Rue d'Egleny",89000,AUXERRE,Site des musées de Bourgogne,47.795393,3.566248
Muséum - Maison de l'Eau,"5, Boulevard Vauban",89000,AUXERRE,Site des musées de Bourgogne,47.796936,3.564362
Musée d'Art et d'Histoire,"Abbaye St-Germain

2 bis, Place Saint-Germain",89000,AUXERRE,Site des musées de Bourgogne,47.800283,3.571975
Musée de l'Avallonnais,"5, Rue du Collège

B.P. 67",89206,AVALLON Cedex,http://www.museeavallonnais.fr- site des musées de Bourgogne - site ville,47.486968,3.906795
Musée des Arts Naïfs et Populaires de Noyers sur Serein,"25, Rue de l'Eglise",89310,NOYERS-SUR-SEREIN,Site des musées de Bourgogne ou www.noyers-sur-serein.com/artnaif.htm,47.72104,3.966631
Musée de l'Aventure du Son,Place de l'hôtel de ville,89170,SAINT-FARGEAU,http://www.aventureduson.fr,47.641201,3.070611
Musée Colette,Château,89520,SAINT-SAUVEUR-EN-PUISAYE,http://www.centre-colette.com - http://www.yonne-89.net/MuseeColette.htm,47.617677,3.199325
Musée Muncipal,Place de la Cathédrale,89100,SENS,Site des musées de Bourgogne,48.197826,3.282682
Musée Municipal de Tonnerre,"22, Rue Rougemont",89700,TONNERRE,,47.855191,3.97484
Musée Villeneuvien,"Porte de Joigny et 2, Rue Carnot",89500,VILLENEUVE-SUR-YONNE,Site de la ville,48.080297,3.294088
Musée d'Art et d'Histoire du Puisaye,Rue Paul-Huillard,89130,VILLIERS-SAINT-BENOIT,,47.780167,3.207453
Musée du Château de Dinan,Rue du Château,22100,DINAN,http://www.mairie-dinan.com,48.450306,-2.043857
Musée National de la Marine,Château de Brest,29240,BREST,http://www.musee-marine.fr/brest,48.385372,-4.488366
Musée des Beaux-Arts de Brest,"24, Rue Traverse",29200,BREST,http://www.musee-brest.com,48.385326,-4.490018
Ecomusée des Monts d'Arrée - Moulins de Kerouat,Moulins de Kerouat,29450,COMMANA,http://www.ecomusee-monts-arree.fr,48.415821,-4.006179
Musée de la Pêche,"Concarneau Cornouaille Agglomération

3, Rue Vauban",29900,CONCARNEAU,http://www.concarneau-cornouaille.fr - www.musee-peche.fr,47.872103,-3.915485
Le Port-Musée,Place de l'Enfer,29100,DOUARNENEZ,http://www.port-musee.org,48.092809,-4.332891
Musée de Morlaix,Place des Jacobins,29600,MORLAIX,http://www.musee.ville.morlaix.fr,48.577109,-3.825372
Musée des Phares et Balises,Le Créac'h,29242,OUESSANT,http://www.parc-naturel-armorique.fr,48.454477,-5.087351
Ecomusée de l'Île d'Ouessant - Maison du Niou Huella,Le Niou Huella,29242,OUESSANT,http://www.parc-naturel-armorique.fr,48.460406,-5.110939
Musée de Pont-Aven,Place de l'Hôtel de Ville,29930,PONT-AVEN,http://www.pontaven.fr,47.855413,-3.747175
Musée Bigouden,Square de l'Europe,29120,PONT-L'ABBE,http://www.museebigouden.fr,47.862215,-4.236762
Musée des Beaux-Arts,"40, Place Saint-Corentin",29000,QUIMPER,http//musee-beauxarts.quimper.fr,47.996206,-4.10238
Musée Départemental Breton,"Palais des Evêques

1, Rue du Roi Gradlon",29000,QUIMPER,http://www.cg29.fr/culture/mdb.htm - Site en cours,47.995125,-4.102602
Musée de l'Ecole Rurale en Bretagne,Kergroas,29560,TREGARVAN,http://www.musee-ecole.fr,48.244346,-4.225059
Ecomusée du Pays de Montfort,"2, Rue du Château",35160,MONTFORT-SUR-MEU,http://www.ecomusee-broceliande.com  - http://ecomuseepaysmontfort.free.fr/,48.137765,-1.956378
Musée de la Faucillonnaie,Manoir de la Faucillonnaie,35500,MONTREUIL-SOUS-PEROUSE,Site de l'office du tourisme,48.154961,-1.238899
Musée des Beaux-Arts,"20, Quai Emile Zola",35100,RENNES,http://www.mbar.org,48.109834,-1.675861
Musée de Bretagne,"46, boulevard Magenta

CS 51138",35011,RENNES Cedex,http://www.musee-bretagne.fr,48.105242,-1.673896
Musée Saint-Nicolas,"15, Rue Pasteur",35506,VITRE,site de l'office du tourisme,48.125622,-1.216099
Musée des Rochers-Sévigné,Route d'Argentré du Plessis,35500,VITRE,site de l'office du tourisme,48.099994,-1.191075
Musée du Château,Place du Château,35506,VITRE Cedex,site de l'office du tourisme,48.12432,-1.214152
Ecomusée de Saint-Dégan,,56400,BREC'H,http://www.ecomusee-st-degan.fr,47.720736,-2.989176
Musée de Préhistoire J. Miln- Z. Le-Rouzic,"10, Place de la chapelle",56340,CARNAC,http://www.museedecarnac.com,47.584531,-3.079164
Ecomusée de l'Île de Groix,Port-Tudy,56590,ILE DE GROIX,http://ecomusee.groix.free.fr,47.63973,-3.444863
Ecomusée Industriel des Forges,Mail François Giovannelli,56650,INZINZAC-LOCHRIST,http://www.inzinzac-lochrist.fr/Ecomusee-des-Forges.6681.0.html,47.824797,-3.252319
Musée du Faouët,"1, Rue de Quimper",56320,LE FAOUET,http://www.museedufaouet.fr,48.031817,-3.490833
Musée de la Compagnie des Indes,Citadelle de Port-Louis,56290,PORT-LOUIS,http://musee.lorient.fr,47.706409,-3.353649
Musée National de la Marine,Citadelle de Port-Louis,56290,PORT-LOUIS,http://www.musee-marine.fr/port-louis,47.706409,-3.353649
Musée de la Résistance Bretonne,Les Hardys-Behelec,56140,SAINT-MARCEL - MALESTROIT,http://www.resistance-bretonne.com,47.80168,-2.432061
Musée du Château de Suscinio,,56370,SARZEAU,http://www.suscinio.info,47.48788,-2.798596
Musée d'Histoire et d'Archéologie de Vannes,"Château Gaillard

2, Rue Noé",56000,VANNES,,47.656705,-2.757726
"La Cohue, Musée des Beaux-Arts de vannes",9 et 15 Place Saint-Pierre,56000,VANNES,,47.657693,-2.757556
Musée des Meilleurs Ouvriers de France,Place Etienne Dolet,18000,BOURGES,Site de la ville www.ville-bourges.fr,47.082181,2.398248
Musée d'Histoire Naturelle Gabriel Foucher,Parc Saint-Paul,18000,BOURGES,http://www.museum-bourges.net,47.069228,2.412463
Musée du Berry,"Hôtel Cujas

4, Rue des Arènes",18000,BOURGES,site de la ville www.ville-bourges.fr,47.08537,2.392969
Musée Estève,"Hôtel des Echevins

13, Rue Edouard Branly",18000,BOURGES,Site de la ville : www.ville-bourges.fr,47.085951,2.396195
Musée des Arts Décoratifs,"Hôtel Lallemant

5, Rue de l'Hôtel Lallemant",18000,BOURGES,Site de la ville www.ville-bourges.fr,47.084605,2.398378
Musée Emile Chénon,"10-12, Rue de la Victoire",18370,CHATEAUMEILLANT,,46.561505,2.196409
Musée du Château Charles VII,Place du Général Leclerc,18500,MEHUN-SUR-YEVRE,http://www.ville-mehun-sur-yevre.fr/Le-Château,47.143299,2.216615
Musée Saint-Vic,Cours Manuel,18200,SAINT-AMAND-MONTROND,,46.720866,2.506685
Musée Bonnevallais,Rue des Ecoles,28800,BONNEVAL,,48.183865,1.390081
Muséum des Sciences Naturelles et de Préhistoire,"5 bis, Bd de la Courtille",28000,CHARTRES,site de la ville : www.ville-chartres.fr ou http://perso.wanadoo.fr/samnel.museum/,48.441822,1.490983
Conservatoire du Machinisme et des Pratiques Agricoles,"1, rue de la République",28300,CHARTRES-MAINVILLIERS,http://www.lecompa.com,48.446888,1.476576
Musée des Beaux-Arts et d'Histoire Naturelle,"3, rue Toufaire",28200,CHATEAUDUN,http://www.ville-chateaudun.fr ou www.musees.regioncentre.fr,48.070792,1.327905
Musée d'Art et d'Histoire Marcel Dessal,"5-7, Place du musée",28100,DREUX,http://www.musees.regioncentre.fr - site de la région,48.733472,1.368066
Musée Marcel Proust,"4, rue du Docteur Proust

B.P. 20025",28120,ILLIERS-COMBRAY,http://perso.orange.fr/marcelproust/,48.29985,1.243452
Musée du Château Saint-Jean,Rue du Château,28400,NOGENT-LE-ROTROU,http://www.ville-nogent-le-rotrou.fr/html/art_cult/musee/collec.htm,48.318117,0.823574
Musée Farcot,Place Farcot,28700,SAINVILLE,mairie.perso.fr/sainville/index.htm,48.415949,1.879013
Musée de la Chemiserie et de l'Elégance Masculine,"Rue Charles Brillaud

BP 154",36200,ARGENTON-SUR-CREUSE,http://chemiserie.cc-argenton.fr,46.588407,1.518501
Château Musée,31/33 Rue Hersent Luzarche,36290,AZAY-LE-FERRON,http://www.château-azay-le-ferron.com,46.851361,1.069524
Musées de Châteauroux - Hôtel Bertrand,"2, Rue Descente-des-Cordeliers",36000,CHATEAUROUX,http://www.ville-chateauroux.fr - Site de la ville,46.813737,1.694262
Musée de l'Hospice Saint-Roch,"23, Rue de l'Hospice Saint-Roch

B.P. 150",36100,ISSOUDUN Cedex,http://www.issoudun.fr,46.945388,1.994497
Musée George Sand et de la Vallée Noire,"71, Rue Venôse",36400,LA CHATRE,Site de la région ou www.pays-george-sand.com,46.581939,1.989964
Musée de Géologie Régionale,,36600,LANGE,,47.064325,1.485945
Musée Ornithologique (Ecomusée de la Brenne),Château Naillac,36300,LE BLANC,Site de la région centre,46.629212,1.061409
Musée de la poste,"6, Rue Joyeuse",37400,AMBOISE,,47.411309,0.984736
Musée de l'Hôtel de Ville,"60, Rue Concorde

B.P. 247",37402,AMBOISE Cedex,Site de la ville www.ville-amboise.fr,47.413209,0.984493
Musée du Vieux Chinon,"44, Rue Haute-Saint-Maurice",37500,CHINON,http://www.chinon-histoire.org,47.167125,0.23767
"""Maison Musée"" René Descartes","29, Rue Descartes",37160,DESCARTES,http://www.ville-descartes.fr/pratique/f_pratique.htm,46.972623,0.699988
Musée de Préhistoire du Grand Pressigny,Château du Grand-Pressigny,37350,LE GRAND PRESSIGNY,http://www.prehistoiregrandpressigny.fr,46.92224,0.804273
Musée Lansyer,"1, rue Lansyer",37600,LOCHES,Site de la région centre ou http://www.lochesentouraine.com,47.126829,0.997457
Musée du Terroir,,37600,LOCHES,,47.126959,0.989963
Musée de l'Hôtel de Ville,"1, Place du Marché",37120,RICHELIEU,http://www.ville-richelieu.fr,47.012709,0.324356
Musée Balzac,Château de Saché,37190,SACHE,"Site hébergé sur www.lysdanslavallee.fr,",47.245773,0.54394
Musée Municipal,Place du Château,37800,SAINTE-MAURE-DE-TOURAINE,http://www.sainte-maure-de-touraine.fr,47.1115,0.619817
Musée du Savignéen,"10, Faubourg Rue",37340,SAVIGNE-SUR-LATHAN,http://www.museedusavigneen.com,47.44581,0.319721
Ecomusée du Véron,"80, Route de Candes",37420,SAVIGNY-EN-VERON,http://www.cc-veron.fr/ecomusee,47.209697,0.124427
Musée Rabelais,Maison de la Devinière,37500,SEUILLY,http://www.musee-rabelais.fr ou site du conseil général,47.140565,0.179408
Muséum d'Histoire Naturelle,"3, Rue du Président Merville",37000,TOURS,http://www.museum.tours.fr,47.394637,0.68388
Musée des Beaux-Arts,"18, Place François Sicard",37000,TOURS,http://www.mba.tours.fr ou www.musees-regioncentre.fr,47.394698,0.694004
Musée des Vins de Touraine,"Cellier Saint-Julien

16, Rue Nationale",37000,TOURS,site de la ville,47.393831,0.687403
Musée du Compagnonnage,"Cloître Saint-Julien

8, Rue Nationale",37000,TOURS,http://www.museecompagnonnage.fr,47.396086,0.686726
Musée de l'Hôtel Goüin,"25, Rue du Commerce

B.P. 1105",37011,TOURS Cedex,Site du conseil général,47.395094,0.684809
Musée de Minerve,Place du Musée,37290,YZEURES-SUR-CREUSE,,46.785891,0.870036
Maison de la Magie,"1, Place du Château",41000,BLOIS,http://www.maisondelamagie.fr,47.586104,1.332126
Château Musées de Blois,Château de Blois,41000,BLOIS,http://www.chateaudeblois.fr,47.586086,1.332121
Muséum d'Histoire Naturelle,"""Les Jacobins"" 

Rue Anne de Bretagne",41000,BLOIS,http://www.ville-blois.fr,47.585156,1.332989
Musée de la Corbillière,Château de la Corbillière,41500,MER,,47.696527,1.514337
Atelier Musée Louis Leygue,"106, Rue des Venages",41100,NAVEIL,,47.794146,1.031198
Musée Archéologique,Hôtel de Ville,41140,THESEE,http://www.musees.regioncentre,47.317703,1.323178
Musée Municipal Théâtre Forain et Archéologique,Quartier du Paradis,45410,ARTENAY,http://www.musee-theatre-forain.fr,48.08201,1.879598
Musée Daniel Vannier,"Hôtel de Ville - Service patrimoine

20, Rue du Change",45190,BEAUGENCY,site de la région ou www.patrimoine-beaugency.fr,47.77814,1.630916
Musée de la Marine de Loire,"Ecuries du Château

1, Place Aristide Briand",45110,CHATEAUNEUF-SUR-LOIRE,http://www.chateauneuf-sur-loire.com ou www.musees-centre.com,47.865168,2.21918
Musée d'Art et d'Archéologie,"2, Faubourg Puyrault",45230,CHATILLON-COLIGNY,http://www.ifrance.com/chatillon-coligny,47.820625,2.844906
Musée Gaston Couté,"Espace culturel La Monnaye

22 Rue des Remparts",45130,MEUNG-SUR-LOIRE,http://www.meung-sur-loire.com,47.825556,1.694889
Musée Girodet,"2, rue de la Chaussée",45200,MONTARGIS,http://www.montargis.fr/musee.htm,47.997843,2.737468
Musée du Gatinais,"7, Rue du Château",45200,MONTARGIS,,47.998314,2.729233
Muséum des Sciences Naturelles,"6, Rue Marcel Proust",45000,ORLEANS,http://www.orleans.fr,47.90807,1.907907
Musée des Beaux-Arts,"1, rue Fernand Rabier",45000,ORLEANS,Région : www.musees.regioncentre.fr ou  www.orleans.fr (rubrique culture/musee),47.903147,1.909903
Musée de la Maison de la Dernière Cartouche,12 Avenue de la Dernière Cartouche,08140,BAZEILLES,http://www.maisondeladernierecartouche.com,49.681811,4.975009
Musée Arthur Rimbaud,Quai Arthur Rimbaud,08000,CHARLEVILLE-MEZIERES,http://www.mairie-charlevillemezieres.fr/htm/culture/rimbaud.htm,49.776058,4.720484
Maison des Ailleurs - Arthur Rimbaud,Quai Rimbaud,08000,CHARLEVILLE-MEZIERES,Site de la ville,49.776058,4.720484
Musée de l'Ardenne,"31, Place Ducale",08000,CHARLEVILLE-MEZIERES,http://www.mairie-charlevillemezieres.fr/htm/culture/rimbaud.htm,49.773621,4.721113
Musée de Givet,"Mairie

11, Place Carnot",08600,GIVET,,50.136341,4.8247
Musée du Feutre,Mairie,08210,MOUZON,http://www.culture.gouv.fr/champagne-ardenne/2culture/musee_france/musee_mouzon.html,49.609209,5.075187
Musée du Rethelois et du Porcien,Place Noiret-Chaigneau,08300,RETHEL,,49.506881,4.363521
Musée du Château-Fort,BP 10322,08200,SEDAN,http://www.chateau-fort-sedan.fr,49.69468,4.920339
Musée Napoléon Ier,"34, Rue de l'Ecole Militaire",10500,BRIENNE-LE-CHATEAU,http://www.musee-napoleon-brienne.fr,48.388915,4.528446
Musée de la Résistance,Rue Boursault,10250,MUSSY-SUR-SEINE,Site de l'OT,47.977391,4.498921
Musée des Beaux-Arts,"1, Rue Chrestien-de-Troyes",10000,TROYES,http://www.musees-troyes.com,48.300638,4.08003
Musée Historique de Troyes et de la Champagne,"4, Rue Vauluisant",10000,TROYES,,48.294239,4.071824
Pharmacie Musée de l'Hôtel-Dieu,Quai des Comtes-de-Champagne,10000,TROYES,,48.300768,4.077528
Maison de l'Outil  et de la Pensée Ouvrière,"7, Rue de La Trinité",10000,TROYES,http://www.maison-de-l-outil.com,48.294907,4.07261
Musée de la Bonneterie,"Conservation des Musées 

2, rue Chrestien de Troyes",10000,TROYES,http://www.ville-troyes.fr,48.300945,4.0797
Muséum d'Histoire Naturelle,"4, Rue Chrestiens de Troyes",10000,TROYES,Site de la ville,48.300722,4.07987
Musée d'Art Moderne,"14, Place Saint-Pierre",10000,TROYES,Site de la ville,48.300046,4.080194
Musée des Beaux-Arts et d'Archéologie,Place du Palais,52000,CHAUMONT,http://www.ville-chaumont.fr,48.112453,5.137406
Musée de l'Affiche - médiathèque,"7/9, Avenue Foch",52000,CHAUMONT,,48.110208,5.129477
Maison des Lumière Denis Diderot (ex Musée du Breuil de Saint-Germain),"1, Place Pierre Burelle",52200,LANGRES,http://www.maisondeslumieres.org,47.866417,5.331753
Musée Municipal,"17, Rue de la Victoire",52100,SAINT-DIZIER,Site de la mairie,48.637908,4.9485
Musée du Cloître de Notre-Dame-en-Vaux,Rue Nicolas Durant,51000,CHALONS-EN-CHAMPAGNE,,48.958112,4.362901
Musée Garinet,"13, rue Pasteur",51000,CHALONS-EN-CHAMPAGNE,,48.955828,4.366495
Musée Municipal,Place Alexandre Godart,51000,CHALONS-EN-CHAMPAGNE,,48.956869,4.363827
Musée Municipal d'Epernay,"13, Avenue de Champagne",51200,EPERNAY,,49.042901,3.961379
Musée de l'Ancien Collège des Jésuites,"Direction de la Culture de la ville de Reims

1, place Museux",51100,REIMS,,49.253125,4.04484
Musée Hôtel le Vergeur,"36, Place du Forum",51100,REIMS,http://www.museelevergeur.com,49.257013,4.034043
Musée Saint-Rémi,"53, rue Simon",51100,REIMS,Site de la ville,49.243111,4.040351
Musée des Beaux-Arts de Saint-Denis,"8, Rue Chanzy",51100,REIMS,site de la ville,49.253442,4.030921
Musée de l'Argonne Viard-Morel,Place Général Leclerc,51800,SAINTE-MENEHOULD,,49.092431,4.898023
Musée Fesch,"50-52, rue du Cardinal Fesch",20000,AJACCIO,http://www.musee-fesch.com,41.922392,8.738549
Musée de la Maison Bonaparte,Rue Saint-Charles,20000,AJACCIO,http://www.musee-maisonbonaparte.fr - www.musees-nationaux-napoleoniens.org,41.917772,8.738068
Musée Napoléonien,"Hotel de Ville

Avenue Antoine Serafini",20000,AJACCIO,http://www.napoleon.org ou http://www.ajaccio.fr/,41.918813,8.738403
Musée de Préhistoire Corse,Boulevard Jacques Nicolai,20100,SARTENE,,41.620393,8.97461
Musée Départemental d'Archéologie d'Aléria,Fort de Matra,20270,ALERIA,http://www.cg2b.fr,42.103684,9.511502
Musée de Bastia,"Mairie de Bastia

Avenue Pierre Giudicelli",20410,BASTIA Cedex,http://www.musee-bastia.com,42.702212,9.451447
Musée Archéologique de Mariana - Prince Rainier III de Monaco,Mairie de Lucciana,20290,LUCCIANA,"http://www.lucciana.fr/mariana,-site-historique-le-musee-archeologique-de-mariana-%20-%C2%AB-prince-rainier-iii-de-monaco-%C2%BB_202.html",42.542624,9.497059
Musée Départemental Pascal Paoli,Hameau de la Stretta 20261,20218,MOROSAGLIA,http://www.cg2b.fr,42.437734,9.308812
Musée des Beaux-Arts et d'Archéologie,"1, Place de la Révolution",25000,BESANCON,http://www.musee-arts-besancon.org,47.240051,6.022927
Muséum de Besançon,"La Citadelle

Rue des Fusillés de la Résistance",25000,BESANCON,http://www.citadelle.com,47.232614,6.032133
Musée de la résistance et de la Déportation,"La Citadelle

Rue des Fusillés",25000,BESANCON,http://www.citadelle.com,47.232614,6.032133
Musée Comtois,"LA CITADELLE

Rue des Fusillés",25000,BESANCON,http://www.citadelle.com,47.232614,6.032133
Musée du Temps,"96, Grande rue",25000,BESANCON,http://www.besancon.fr/museedutemps,47.23602,6.026659
Musée Beurnier-Rossel,"8, Place Saint-Martin

B.P. 95287",25200,MONTBELIARD,http://www.montbeliard.fr,47.509957,6.797684
Musée du Château des Ducs de Wurtemberg,B.P. 95287,25205,MONTBELIARD Cedex,http://www.montbeliard.fr,48.890388,5.555086
Musée de Plein Air des Maisons Comtoises,Rue du Musée,25360,NANCRAY,http://www.maisons-comtoises.org,47.243044,6.189533
Musée de Pontarlier,"2, Place d'Arçon",25300,PONTARLIER,Site de la ville,46.904221,6.354581
Musée Départemental Albert Demard,Château de Champlitte,70600,CHAMPLITTE,http://www.cg70.fr/decouvertes/musee,47.661612,5.466123
Ecomusée du Pays de la Cerise,"206, Le Petit Fahyr",70220,FOUGEROLLES,http://www.musees-des-techniques.org,47.907071,6.401161
Musée Baron Martin,"6, rue Pigalle",70100,GRAY,http://www.ville-gray.fr,47.446411,5.592781
Musée Départemental de la Montagne Albert Demard,Château-Lambert,70440,LE HAUT-DU-THEM,http://musees.cg70.fr,47.845927,6.746415
Musée de la Tour des Echevins,"36, Rue Victor Genoux",70300,LUXEUIL-LES-BAINS,http://www.luxeuil.fr,47.816844,6.38053
Musée Georges Garret,"1, Rue des Ursulines",70000,VESOUL,Site des musées de la région,47.623695,6.155772
Musée Sarret de Grozon,Grande Rue,39600,ARBOIS,Site des musées de la région,46.903356,5.773137
Musée Municipal d'Archéologie,"26, rue Baronne Delort",39300,CHAMPAGNOLE,http://www.tourisme.champagnole.com,46.74651,5.907547
Musée des Beaux-Arts,"85, rue des Arènes",39100,DOLE,Site de la ville ou site des musées de la région,47.089059,5.488205
Musée d'Archéologie,"7, Rue des Cordeliers",39000,LONS-LE-SAUNIER,Site de la ville,46.674433,5.55523
Musée des Beaux-Arts,Place Philibert de Châlon,39000,LONS-LE-SAUNIER,Site des musées de la région,46.675825,5.553897
Musée du Jouet,"5, Rue du Murgin",39260,MOIRANS-EN-MONTAGNE,http://www.musee-du-jouet.fr et Site des musées de la région,46.433004,5.726307
Viséum-Musée de la Lunette,Place Jean Jaurès,39400,MOREZ,http://www.musee-lunette.fr ou www.musees-franchecomte.com,46.529788,6.020053
Musée Municipal de Poligny,"Hôtel de Ville

49, Grande Rue",39800,POLIGNY,http://www.musee-poligny.fr,46.836426,5.708802
Musée de l'Abbaye/Donations Guy Bardone - René Genis,"3, Place de l'Abbaye",39200,SAINT-CLAUDE,Site des musées de la région,46.386209,5.865239
Musée des Salines,Place des Salines,39110,SALINS-LES-BAINS,http://www.salinesdessalins.com ou www.musees-des-techniques.org,46.939895,5.877348
Musée Max Claudet,Place des Salines,39110,SALINS-LES-BAINS,http://www.juramusees.fr/1/musee/musees/beaux_arts/musee_max_claudet_salins_les_bains.html,46.939895,5.877348
Musée de l'Artisanat Jurassien,Abbaye de Baume-Les-Messieurs,39210,VOITEUR,,46.707619,5.64848
Musée Frédéric Japy,"16, Rue Frédéric Japy",90500,BEAUCOURT,http://www.musees-des-techniques.org,47.485011,6.922453
Forge-Musée,"2, Rue de Lamadeleine",90170,ETUEFFONT,http://www.musees-des-techniques.org ou www.cc-pays-sous-vosgien.fr,47.722575,6.920842
Musée Précolombien Edgar Clerc,440 Route de la Rosette,97160,LE MOULE,http://www.cg971.fr/musees/clerc/index_edgar.htm,16.340101,-61.382285
Musée Municipal Saint-John Perse,"9, rue de Nozière",97110,POINTE-A-PITRE,http://www.sjperse.org/museesjp.htm,16.236416,-61.535945
Musée Schoelcher,"24, Rue Peynier",97110,POINTE-A-PITRE -GUADELOUPE,http://www.cg971.fr/musees/schoelcher/index_schoecher.htm,16.237697,-61.537737
Musée des Cultures Guyanaises,"78, Rue Mme Payé",97300,CAYENNE,http://www.mcg973.org ou www.amazonian-museum-network.org,4.944611,-52.302857
Musée Départemental Alexandre Franconie,"1, Avenue du Général-de-Gaulle",97300,CAYENNE - GUYANE,,4.938177,-52.334359
Ecomusée Municipal d'Approuague-Kaw,"Rue Gaston Monnerville

Le Bourg",97390,REGINA,,16.333767,-61.348355
Musée Français de la Photographie,"78, Rue de Paris",91570,BIEVRES,http://www.museedelaphoto.fr,48.762826,2.225102
Musée Dunoyer de Segonzac,"5, Place des Droits de l'Homme",91800,BOUSSY-SAINT-ANTOINE,,48.688925,2.530019
Musée Municipal Robert Dubois-Corneau,"16, Rue du Réveillon",91800,BRUNOY,http://www.brunoy.fr,48.700303,2.500266
Musée du Château,Place du Général de Gaulle,91410,DOURDAN,Site de la ville - www.mairie-dourdan.fr,48.529349,2.01149
Musée Belmondo et de la Sculpture Figurative du XXè siècle,"Château Buchillot

14, Rue de l'Abreuvoir",92100,BOULOGNE-BILLANCOURT,http://www.boulognebillancourt.com,48.847455,2.232701
Musée-Jardin Paul Landowski,"14, Rue Max Blondat",92100,BOULOGNE-BILLANCOURT,,48.844261,2.246847
Musée Départemental Albert-Kahn,"10-14, Rue du Port",92100,BOULOGNE-BILLANCOURT,http://www.albert-kahn.fr,48.841354,2.227488
Musée des Années Trente,"Espace Landowski

28, avenue André Morizet",92100,BOULOGNE-BILLANCOURT,Site de l'association des amis -  www.annees30.com/,48.83591,2.239289
Fondation Arp,"21, Rue des Châtaigniers",92140,CLAMART,http://www.fondationarp.org,48.803529,2.244319
Musée Municipal d'Art et d'Histoire,"2, Rue Gabriel Péri",92700,COLOMBES,Site de la ville - www.mairie-colombes.fr,48.923321,2.252039
Musée Roybet Fould,"Parc de Bécon

178, Boulevard Saint Denis",92400,COURBEVOIE,,48.900998,2.271279
Musée des Travaux Publics,Mairie de Courbevoie,92400,COURBEVOIE,Site de la ville,48.89371,2.258054
Musée Français de la Carte à Jouer,"16, Rue Auguste Gervais",92130,ISSY-LES-MOULINEAUX,http://www.issy.com/musee,48.822771,2.273453
Musée - Atelier Rodin,"19, Avenue Auguste Rodin",92190,MEUDON,http://www.musee-rodin.fr,48.813854,2.25249
Musée d'Art et d'Histoire,"11, Rue des Pierres",92190,MEUDON,http://www.meudon.fr,48.806412,2.234894
Musée des Automates,"Hôtel Arturo Lopez

12, Rue du Centre",92200,NEUILLY-SUR-SEINE,,48.879608,2.252754
Musée National des Châteaux de Malmaison et de Bois-Préau,Avenue du Château de Malmaison,92500,RUEIL-MALMAISON,http://www.chateau-malmaison.fr,48.872958,2.169032
Musée Franco-Suisse,"13, Boulevard Foch",92501,RUEIL-MALMAISON Cedex,Site de la mairie : /www.mairie-rueilmalmaison.fr,48.878122,2.180317
Musée d'Histoire Locale - Mémoire de la Ville,"13, Boulevard Foch",92501,RUEIL-MALMAISON Cedex,Site de la mairie : /www.mairie-rueilmalmaison.fr,48.878122,2.180317
Musée Municipal de Saint-Cloud,"""Jardin des Avelines""

60, Rue Gounod",92210,SAINT-CLOUD,http://www.saint-cloud.fr,48.842497,2.208286
Musée de l'Île de France,,92330,SCEAUX,http://www.chateau-sceaux.fr ou/www.domaine-de-sceaux.fr (site du conseil général) ou www.sceaux.fr,48.778555,2.288291
Sèvres - Cité de la Céramique,"2, Place de la Manufacture",92310,SEVRES,http://www.sevresciteceramique.fr,46.575183,0.305931
MUS - Musée d'Histoire Urbaine et Sociale,"1, Place de la gare de Suresnes-Longchamp",92150,SURESNES,http://www.ville-suresnes.fr ou http://webmuseo.com/ws/musee-suresnes/app/report/index.html,48.868319,2.221999
Musée National de L'Orangerie des Tuileries,Jardin des Tuileries,75001,PARIS,http://www.musee-orangerie.fr,48.862968,2.323733
Musée National Picasso,"Hôtel Salé

5, Rue de Thorigny",75003,PARIS,http://www.musee-picasso.fr,48.8597,2.362644
"Musée Cognacq-Jay, Musée du XVIIIe siècle de la ville de Paris","8, Rue Elzévir",75003,PARIS,http://www.museecognacqjay.paris.fr,48.858257,2.361524
Musée Carnavalet-Histoire de Paris,"16, Rue de Sévigné",75003,PARIS,http://www.carnavalet.paris.fr,48.857573,2.363359
Maison de Victor Hugo,"6, Place des Vosges",75004,PARIS,http://www.maisonsvictorhugo.paris.fr,48.854821,2.366126
Musée National du Moyen Age-Thermes de Cluny,"6, Place Paul Painlevé",75005,PARIS,http://www.musee-moyenage.fr,48.850325,2.343921
Galerie de Minéralogie et de Géologie (Muséum d'Histoire Naturelle),"Jardin des Plantes

36, Rue Geoffroy Saint-Hilaire",75005,PARIS,http://www.mnhn.fr,48.841491,2.355989
Grande Galerie de l'Evolution (Muséum National d'Histoire Naturelle),"Jardin des Plantes

36, rue Geoffroy Saint-Hilaire",75005,PARIS,http://www.mnhn.fr,48.841491,2.355989
Galerie de Botanique (Muséum National National d'Histoire Naturelle),,75005,PARIS,http://www.mnhn.fr,48.844107,2.351541
Galerie d’entomologie (Muséum national d'histoire naturelle),"57, Rue Cuvier",75005,PARIS,http://www.mnhn.fr,48.843835,2.355201
Musée de l'Assistance Publique - Hôpitaux de Paris,"10, Rue des Fossés Saint-Marcel",75005,PARIS,http://www.aphp.fr,48.838808,2.356014
Crypte Archéologique du Parvis Notre-Dame,"7, Place Jean Paul II

Parvis Notre-Dame",75004,PARIS,http://www.crypte/paris.fr,49.11925,6.174731
Musée Nissim de Camondo (Les Arts Décoratifs),"63, Rue de Monceau",75008,PARIS,http://www.lesartsdecoratifs.fr/,48.878849,2.312855
Musée d'Art et d'Histoire du Judaïsme,"Hôtel de Saint-Aignan

71, Rue du Temple",75003,PARIS,http://www.mahj.org,48.86095,2.355608
Galerie d'Anatomie Comparée et de Paléontologie (Muséum d'Histoire Naturelle),"Jardin des Plantes

2, rue Buffon",75005,PARIS,http://www.mnhn.fr,48.842137,2.359895
Musée de l'Armée,"Hôtel National des Invalides

129, rue de Grenelle",75007,PARIS,/www.musee-armee.fr,48.858219,2.312885
Établissement Public de la Porte Dorée - Musée de l’Histoire de l’Immigration,"Palais de la Porte Dorée

293, avenue Daumesnil",75012,PARIS,http://www.histoire-immigration.fr,48.834887,2.408507
Musée de la Chasse et de la Nature,"60, rue des Archives",75003,PARIS,http://www.chassenature.org/,48.861337,2.358433
Musée National de la Marine,"17, Place du Trocadéro",75116,PARIS,http://www.musee-marine.fr,48.862492,2.287378
Musée de la Publicité (Les Arts Décoratifs),"107, Rue de Rivoli",75010,PARIS,http://www.museedelapub.org et www.lesartsdecoratifs.fr/,48.863218,2.3333
Musée Jean-Jacques Henner,"43, Avenue de Villiers",75017,PARIS,http://www.musee-henner.fr ou www.henner-intime.fr,48.883045,2.307689
Musée de Montmartre,"12, Rue Cortot",75018,PARIS,http://www.museedemontmartre.fr,48.887709,2.340577
Musée de l'Homme (Muséum National d'Histoire Naturelle),Place du Trocadéro,75116,PARIS,http://www.mnhn.fr,48.862507,2.282278
Musée Zadkine,"100 bis, rue d'Assas",75006,PARIS,http://www.zadkine.paris.fr,48.843177,2.333969
Palais Galliéra - Musée de la Mode de la ville de Paris,"10, Avenue Pierre 1er de Serbie",75116,PARIS,http://www.palaisgalliera.paris.fr,48.865846,2.296361
Etablissement Public du Musée d'Orsay,"62, Rue de Lille",75007,PARIS,http://www.musee-orsay.fr,48.859754,2.325917
Musée de la Musique,"221, Avenue Jean-Jaurès",75019,PARIS,http://www.citedelamusique.fr,48.889306,2.393807
Musée Hébert,"Hôtel de Montmorency-Bours

85, Rue du Cherche Midi",75006,PARIS,,48.847429,2.322709
"Petit Palais, Musée des Beaux-Arts de la ville de Paris",Avenue Winston-Churchill,75008,PARIS,http://www.petitpalais.paris.fr,48.866084,2.313813
Musée National Gustave Moreau,"14, Rue de la Rochefoucauld",75009,PARIS,http://www.musee-moreau.fr,48.877878,2.334383
Musée de la Franc-Maçonnerie,"16, Rue Cadet",75009,PARIS,http://www.museefm.org,48.874952,2.343057
Musée de la Vie Romantique,"16, Rue Chaptal",75009,PARIS,http://www.vie-romantique.paris.fr,48.880899,2.333278
Etablissement public de la Porte Dorée - Aquarium Tropical,"293, avenue Daumesnil",75012,PARIS,http://www.aquarium-portedoree.fr,48.834887,2.408507
"Musée Cernuschi, Musée des Arts de l'Asie de la ville de Paris","7, Avenue Velasquez",75008,PARIS,http://www.cernuschi.paris.fr,48.879693,2.312194
Musées Arts Décoratifs  Mode et du Textile,"107, Rue de Rivoli",75001,PARIS,http://www.lesartsdecoratifs.fr,48.863218,2.3333
Musée National de la Légion d'Honneur et des Ordres de Chevalerie,"2, Rue de la Légion d'Honneur",75007,PARIS,http://www.musee-legiondhonneur.fr,48.860433,2.324889
Musée du Louvre,"34, Quai du Louvre",75001,PARIS,http://www.louvre.fr,48.858905,2.340991
Musée National du Sport,"93, avenue de France",75013,PARIS,http://www.museedusport.fr,48.829117,2.37785
Musée National Eugène Delacroix,"6, Rue Furstenberg",75006,PARIS,http://www.musee-delacroix.fr,48.854437,2.335771
Musée du Général Leclerc de Hauteclocque et de la Libération de Paris - Musée Jean Moulin,"23, Allée de la 2ème DB",75015,PARIS,http://www.ml-leclerc-moulin.paris.fr,48.840251,2.319293
Musées des Arts Décoratifs,"107, Rue de Rivoli",75001,PARIS,http://www.lesartsdecoratifs.fr/,48.863218,2.3333
Musée Bourdelle,"16, Rue Antoine Bourdelle",75015,PARIS,http://www.bourdelle.paris.fr,48.843017,2.31883
Les Catacombes,"1, avenue du Colonel Henri Rol-Tanguy

(Place Denfert-Rochereau)",75014,PARIS,http://www.catacombes.paris.fr,48.833784,2.331927
Maison de Balzac,"47, rue Raynouard",75016,PARIS,http://www.balzac.paris.fr,48.85538,2.280755
Musée National Auguste Rodin,"Hôtel Biron

77, rue de Varenne",75007,PARIS,http://www.musee-rodin.fr,48.855868,2.31598
Musée d'Ennery,"59, Avenue Foch",75116,PARIS,http://www.guimet.fr,48.871887,2.282381
Etablissement Public du Musée des Arts Asiatiques Guimet,"6, Place d'Iéna",75116,PARIS,http://www.museeguimet.fr,48.865008,2.293674
M.U.C.E.M. - Musée des ATP,"6, Avenue du Mahatma Gandhi",75116,PARIS,http://www.musee-europemediterranee.org,48.877026,2.267791
Musée des Monuments Français,"Palais de Chaillot

1, Place du Trocadéro et du 11 Novembre",75116,PARIS,http://www.citechaillot.fr,48.862887,2.287945
Musée Bouchard,"25, Rue de l'Yvette",75016,PARIS,http://www.musee-bouchard.com,48.853611,2.265988
Musée National des Techniques (Conservatoire National des Arts et Métiers),"292, rue Saint-Martin",75141,PARIS cedex 03,http://www.arts-et-metiers.net,48.866961,2.354634
Musée National d'Art Moderne (Centre National d'Art et de Culture Georges Pompidou),Place Georges Pompidou,75191,PARIS Cedex 04,http://www.centrepompidou.fr,48.844444,2.271958
Musée du Service de Santé des Armées du Val-de-Grâce,"1, Place Alphonse Laveran",75230,PARIS Cedex 05,http://www.valdegrace.org,48.840814,2.341091
Institut du Monde Arabe,"1, Rue des Fossés Saint-Bernard

Place Mohammed V",75236,PARIS Cedex 05,http://www.imarabe.org,48.849302,2.356099
Musée des Monnaies et des Médailles,"11, Quai de Conti",75270,PARIS Cedex 06,http://www.monnaiedeparis.fr,48.857003,2.338699
Musée du Quai Branly,"222, rue de l'Université",75343,PARIS cedex 07,http://www.quaibranly.fr,48.860136,2.297256
L'Adresse Musée de la Poste,"34, Boulevard de Vaugirard",75731,PARIS Cedex 15,http://www.museedelaposte.fr ou www.laposte.fr/musee,48.841347,2.317414
Musée Départemental de l'Ecole de Barbizon - Auberge Ganne,"92, Grande Rue",77630,BARBIZON,"www.seine-et-marne.fr (rubrique ""loisirs/musées départementaux)",48.446153,2.602548
Musée Municipal de Chelles Alfred Bonno,Place de la République,77500,CHELLES,http://www.chelles.fr/Culture/Musee-Alfred-Bonno,48.877886,2.59188
"Musée des Transports Urbains, Interurbains et Ruraux","1, Rue Gabriel de Mortillet",77500,CHELLES,http://www.amtuir.org,48.87682,2.603374
Maison Natale de Louis Braille,"13, Rue Louis-Braille",77700,COUPVRAY,http://www.braillenet.org/louis_braille/maisnat.htm,48.894538,2.791986
Musée Municipal,,77580,CRECY-LA-CHAPELLE,dgs@crecylachapelle.eu,48.858000,2.907321
Musée d'Art et d'Histoire Militaire,"88, Rue St-Honoré",77300,FONTAINEBLEAU,http://www.napoleon.org/fr,48.406893,2.698781
Musée du Château de Fontainebleau,Château de Fontainebleau,77300,FONTAINEBLEAU,http://www.châteaudefontainebleau.fr,48.401648,2.700536
Musée Gatien Bonnet,"8, Cour Pierre Herbin",77405,LAGNY-SUR-MARNE,Site de la ville,48.879644,2.707767
Musée Henri Chapu,"937, Rue Chapu",77350,LE MEE-SUR-SEINE,Site de la ville,48.534859,2.635235
Musée Bossuet,"5, Place Charles de Gaulle",77100,MEAUX,site de la ville - www.ville-meaux.fr,48.96087,2.8784
Musée de la Gendarmerie Nationale,Avenue du 13ème Dragons,77000,MELUN,http://www.gendarmerie.interieur.gouv.fr/musee,48.546473,2.651614
Musée de Melun,"5, Rue du Franc Mûrier",77008,MELUN Cedex,Site de la ville : www.ville-melun.fr,48.536398,2.658972
Musée Municipal,Place de Samois,77250,MORET-SUR-LOING,http://www.ville-moret-sur-loing.fr,48.373057,2.813651
Château-musée de Nemours,Rue Gautier 1er,77140,NEMOURS,Site de la ville - www.ville-nemours.fr,48.265557,2.696198
Musée Départemental de Préhistoire d'Île de France,"48, Avenue Etienne Dailly",77140,NEMOURS,http://www.musee-prehistoire-idf.fr,48.260788,2.714709
Musée de Provins et du Provinois,"7, rue du Palais",77160,PROVINS,Site de la ville : www.mairie-provins.fr,48.561624,3.290374
Musée des Pays de Seine-et-Marne,"17, Avenue de la Ferté-Sous-Jouarre",77750,SAINT-CYR-SUR-MORIN,"Site du conseil général - www.seine-et-marne.fr - rubrique ""loisirs""",48.90803,3.18169
Musée départemental Stéphane Mallarmé,"Pont de Valvins

4, Promenade Stéphane Mallarmé",77870,VULAINES-SUR-SEINE,"www.weine-et-marne.fr (rubrique ""loisirs/musées départementaux)",48.430323,2.746605
Musée de l'Air et de l'Espace,"Aéroport de Paris - Le Bourget

BP 173",93352,LE BOURGET Cedex,http://www.museeairespace.fr,48.943418,2.427417
Musée Municipal,Avenue du Consul Général Nordling,93190,LIVRY-GARGAN,http://www.mairie-livrygargan.fr/rubrique culture loisirs,48.917561,2.534138
Musée de l'Histoire Vivante,"31, Boulevard Théophile Sueur",93100,MONTREUIL-SOUS-BOIS,http://www.museehistoirevivante.com,48.866151,2.469481
Musée d'Art et d'Histoire,"22 bis, rue Gabriel Péri",93200,SAINT-DENIS,http://www.musee-saint-denis.fr,48.932336,2.355796
Musée Municipal,"12, Rue Albert Dhalenne",93400,SAINT-OUEN,,48.916536,2.330208
Musée du Vieil Argenteuil,"5, rue Pierre-Guienne",95100,ARGENTEUIL,Site de la ville - www.argenteuil.fr/article.php3?id_article=529,48.94388,2.256737
Musée de la Renaissance - Château d'Ecouen,Château,95440,ECOUEN,http://www.musee-renaissance.fr ou www.musee-château-ecouen.fr,49.015861,2.378418
Musée Archéologique du Val d'Oise,Place du Château,95450,GUIRY-EN-VEXIN,http://www.valdoise.fr/content/content15651.html,49.107989,1.848496
Musée d'Art et d'Histoire Louis Senlecq,"46, Grande Rue",95290,L'ISLE-ADAM,http://musee.ville-isle-adam.fr/index.html,49.112091,2.218832
ARCHEA - Musée Intercommunal d'Histoire et d'Archéologie,"56, Rue de Paris",95380,LOUVRES,http://www.archea-roissyportedefrance.fr,49.041117,2.50695
Musée jean-Jacques Rousseau,"5, Rue Jean-Jacques Rousseau",95160,MONTMORENCY,/www.ville-montmorency.fr,48.986892,2.320916
Musée Tavet Delacour,"4, Rue Lemercier",95300,PONTOISE,Site de la ville - www.ville-Pontoise.fr,49.05093,2.099776
Musée Camille Pissarro,"17, Rue du Château",95300,PONTOISE,http://www.ville-pontoise.fr,49.048398,2.099888
Musée Adrien Mentienne,"1, Grande Rue Charles de Gaulle",94360,BRY-SUR-MARNE,http://www.bry94.fr/bry/71.htm,48.835224,2.519827
Ecomusée du Val de Bièvre,"Ferme de Cottinville

41, rue Maurice Ténine",94260,FRESNES,http://www.ecomusee-valdebievre.fr,48.75525,2.326389
Musée de Saint-Maur - Villa Médicis,"5, Rue Saint-Hilaire",94210,LA VARENNE-SAINT-HILAIRE,http://www.saint-maur.com/musee/musee.htm,48.792802,2.514062
Musée Fragonard,"Ecole Nationale Vétérinaire d'Alfort

7, Avenue du Gal de Gaulle",94704,MAISONS-ALFORT Cedex,http://musee.vet-alfort.fr,48.814274,2.421122
Musée de Nogent-Sur-Marne,"36, Boulevard Gallieni",94130,NOGENT-SUR-MARNE,http://www.musee-nogentsurmarne.fr,48.84026,2.484292
Musée Emile Jean,"31, rue Louis-Lenoir",94350,VILLIERS-SUR-MARNE,http://www.mairie-villiers94.com/francais/vie_quoti/vie_quot_culture7.php,48.826701,2.543144
Musée de la Batellerie,"Château du Prieuré

3, Place Gévelot",78700,CONFLANS-SAINTE-HONORINE,http://www.mairie-conflans-sainte-honorine.fr,48.992445,2.095621
Musée de la Toile de Jouy,"Château de l'Eglantine

54, rue Charles de Gaulle",78350,JOUY-EN-JOSAS,http://www.museedelatoiledejouy.fr,48.768986,2.153216
Musée National de Port Royal des Champs,Route des Granges,78114,MAGNY-LES-HAMEAUX,http://www.port-royal-des-champs.eu,48.748152,2.015991
Musée de l'Hôtel-Dieu,"1, Rue Thiers",78200,MANTES-LA-JOLIE,http://musee.ville-mantes-la-jolie.com,48.990874,1.719901
Musée Victor Aubert,"24, rue Quincampoix",78580,MAULE,http://museeaubertmaule.free.fr,48.908957,1.849122
Musée Zola-Dreyfus,"26, Rue Pasteur",78670,MEDAN,http://www.maisonzola-museedreyfus.com,48.955066,1.995741
Musée-Maison Maurice Ravel,"5, Rue Maurice Ravel",78490,MONTFORT-L'AMAURY,http://www.ville-montfort-l-amaury.fr,48.776114,1.805347
Musée de la Ville,Quai François Truffaut,78180,MONTIGNY LE BRETONNEUX,http://www.museedelaville.agglo-sqy.fr,48.782574,2.042599
Musée d'Art et d'Histoire,"12, Rue Saint-Louis",78300,POISSY,Site de la ville,48.930899,2.038803
Musée du Jouet Pierre Pinel,"1, Enclos de l'Abbaye",78300,POISSY,site de la ville,48.928536,2.03784
Musée Rambolitrain,"4, Place Jeanne d'Arc",78120,RAMBOUILLET,http://www.rambolitrain.fr,48.646025,1.823892
Musée Municipal - Collections Paul et André Véra,"Espace Véra

2, Rue Henri IV",78100,SAINT-GERMAIN-EN-LAYE,Site de la ville,48.896357,2.097575
Musée d'Archéologie Nationale (des origines à l'an mille) - Château de st-Germain-en-Laye,"Château

Place Charles de Gaulle",78105,SAINT-GERMAIN-EN-LAYE Cedex,http://www.musee-antiquitesnationales.fr -www.musee-archeologienationale.fr,48.897404,2.094962
Musée Départemental Maurice Denis,"2 bis, Rue Maurice Denis

B.P. 60222",78102,SAINT-GERMAIN-EN-LAYE Cedex,http://www.musee-mauricedenis.fr,48.892496,2.087541
Collections de la Fondation de Coubertin,Domaine de Coubertin,78470,ST-REMY-LES-CHEVREUSE,http://www.coubertin.fr,48.701169,2.06008
Musée Lambinet,"54, Boulevard de la Reine",78000,VERSAILLES,http://www.musee-lambinet.com,48.808966,2.130624
Etablissement Public du Musée et du Domaine National de Versailles,R.P. 834,78008,VERSAILLES Cedex,http://www.chateauversailles.fr,50.27117,1.666476
"Musée Municipal ""Eburomagus Musée Archéologique""","2, Avenue du Razès",11150,BRAM,http://www.eburomagus.com,43.243772,2.116173
Musée des Beaux-Arts,"1, Rue de Verdun",11000,CARCASSONNE,Site de la ville,43.212595,2.35536
Musée Municipal,Mairie,11600,LASTOURS,,43.329607,2.381615
Musée Archéologique,Allée des Potiers,11590,SALLELES D'AUDE,http://culture.legrandnarbonne.com/421-amphoralis.html - www.amphoralis.com,43.268326,2.939055
Musée des Corbières,Place de la Libération,11130,SIGEAN,http://www.sigean.fr - site de la ville,43.028708,2.979241
Musée du Colombier,Rue Jean Mayodon,30100,ALES,site de la ville - www.ville-ales.fr,44.129374,4.080928
Musée Albert André,"Hôtel de ville

place Mallet",30200,BAGNOLS-SUR-CEZE,Site dela ville ou Site du conseil général,44.162044,4.619756
Musée Léon Alègre,"24, avenue Paul Langevin",30200,BAGNOLS-SUR-CEZE,Site de la ville ou site du conseil général,44.164783,4.621031
Musée Municipal de la Vignasse,"Mairie

Rue de l'Hôtel de ville",30300,BEAUCAIRE,http://www.beaucaire.fr/spip.php?article65,43.806612,4.644317
Musée Cévenol,"1, Rue des Calquières",30120,LE VIGAN,http://www.museecevenol.com,43.988992,3.606958
Musée Archéologique,"13, Boulevard Amiral Courbet",30000,NIMES,http://www.nimes.fr/index.php?id=280,43.837616,4.362815
Musée des Cultures Taurines,"6, Rue Alexandre Ducros",30000,NIMES,http://www.nimes.fr/index.php?id=282,43.833806,4.358623
Musée du Vieux Nîmes,Place aux Herbes,30000,NIMES,http://www.nimes.fr/index.php?id=283,43.838287,4.359585
Carré d'Art Musée d'Art Contemporain de Nîmes,Place de la Maison Carrée,30031,NIMES Cedex 1,http://www.carreartmusee.nimes.fr,43.838163,4.356136
Musée des Beaux-Arts,Rue Cité Foulc,30033,NIMES Cedex 9,http://www.nimes.fr,43.831958,4.360886
Musée d'Histoire Naturelle et de Préhistoire,"13 Bis, Bd Amiral Courbet",30033,NIMES Cedex 9,site de la ville - www.nimes.fr,43.837676,4.36298
Musée Départemental d'Art Sacré,"Maison des Chevaliers

2, Rue Saint-Jacques",30130,PONT-SAINT-ESPRIT,http://www.gard-provencal.com/musees/artsacre.htm,44.255204,4.650869
Musée Paul Raymond,Place de l'Ancienne Mairie,30130,PONT-SAINT-ESPRIT,http://www.gard-provencal.com/musees/praymond.htm,44.255685,4.650898
Musée des Vallées Cévenoles,B.P. 08,30270,SAINT-JEAN DU GARD,http://www.museedescevennes.com,48.890388,5.555086
Musée Municipal Georges Borias,BP 103,30701,UZES Cedex,http://uzesmusee.blogspot.fr/ ou http://www.uzes-tourisme.com/sitefr/musees/borias.htm,44.016322,4.41047
Musée Pierre de Luxembourg,"3, Rue de la République",30400,VILLENEUVE-LES-AVIGNON,Site du conseil général,43.965435,4.796389
Musée Agathois,5 rue de la Fraternité,34300,AGDE,,43.311837,3.468587
Musée des Beaux-Arts de Béziers,Place de la Révolution,34500,BEZIERS,http://www.ville-beziers.fr/culture/02.cfm,43.341552,3.210676
Muséum d'Histoire Naturelle,15 Place Pierre Semard,34500,BEZIERS,Site de la ville,43.343241,3.211279
Musée de l'Etang de Thau,Quai du Port de Pêche,34140,BOUZIGUES,http://www.bouzigues.fr/musee,43.446763,3.660714
Musée Municipal,"4 bis, Rue Lucien Salette",34110,FRONTIGNAN-LA-PEYRADE,site de la ville - www.ville-frontignan.fr,43.446743,3.754546
Site Archéologique Lattara - Musée Henri Prades de Montpellier Agglomération,"390, Avenue de Pérols",34970,LATTES Cédex,http://www.montpellier-agglo.com/museearcheo,43.566729,3.908384
Musée Intercommunal du Pic Saint-Loup,"1, Rue du Musée",34270,LES MATELLES,http://www.cc-picsaintloup.fr,43.725407,3.80852
Musée Archéologique,Place du Monument aux Morts,34210,MINERVE,,43.354336,2.746215
Musée de l'Hôtel d'Espeyran,"6, bis rue Montpelliéret",34000,MONTPELLIER,http://www.montpellier-agglo.com,43.611158,3.880156
Musée Fabre,"13, rue Montpellieret",34000,MONTPELLIER,http://www.montpellier-agglo.com/museefabre,43.61122,3.880192
Musée Languedocien,"Hôtel des Trésoriers de France

7, Rue Jacques-Cœur",34000,MONTPELLIER,http://www.musee-languedocien.com,43.609525,3.879151
Musée du Vieux Montpellier,"Hôtel de Varennes

2, Place Pétrarque",34000,MONTPELLIER,http://www.montpellier.fr/3803-manifestations-culturelles.htm,43.610763,3.878354
Agropolis-Muséum,"951, Avenue Agropolis",34394,MONTPELLIER Cedex 5,http://www.museum.agropolis.fr,43.646297,3.868582
Musée Municipal,"Hôtel de ville

Rue des Lavoirs",34570,MURVIEL-LES-MONTPELLIER,http://www.ville-murviel-les-montpellier.fr,43.605501,3.737131
Musée de Vulliod Saint-Germain,"3, Rue Albert-Paul Allies",34120,PEZENAS,Site de la ville,43.461352,3.422892
Musée de Préhistoire Régionale et du Mégalithisme,"8, Grand'Rue",34220,SAINT-PONS-DE-THOMIERES,http://www.pays-saintponais.com,43.488771,2.758652
Musée Paul Valéry,"148, Rue François Desnoyer",34200,SETE,http://www.museepaulvalery-sete.fr,43.395512,3.691204
Musée Ignon Fabre,"3, Rue de l'Epine",48000,MENDE,,44.518396,3.499291
Ecomusée du Mont Lozère,Route de Finiels,48220,PONT DE MONTVERT,http://www.mescevennes.com/decouvertes/ecomusee_loz.htm,44.36401,3.746557
Muséum d'Histoire Naturelle,"12, Place  Fontaine Neuve",66000,PERPIGNAN,http://www.mairie-perpignan.fr,42.697424,2.899718
Musée Archéologique de Ruscino,Château Roussillon,66000,PERPIGNAN,,42.708796,2.946234
Musée Joseph Puig,"42, Avenue de Grande-Bretagne

B.P. 931",66931,PERPIGNAN Cedex,Site de la mairie - www.mairie-perpignan.fr,42.69945,2.883256
Musée Hyacinthe Rigaud,"16, rue de l'Ange

B.P. 931",66931,PERPIGNAN Cedex,Site de la mairie : www.mairie-perpignan.fr,42.69812,2.893588
Musée d'Archéologie Sous-Marine,Mairie,66660,PORT-VENDRES,,42.522276,3.104792
Musée de Cerdagne,Cal Mateu,66800,SAINTE-LEOCADIE,http://www.museedecerdagne.com,42.439388,2.00239
Musée de Tautavel,Avenue Léon-Jean Grégory,66720,TAUTAVEL,http://www.450000ans.com ou www.cerptautavel.com,42.813782,2.747999
Musée Labenche d'Art et d'Histoire,"26 bis, boulevard Jules Ferry",19100,BRIVE-LA-GAILLARDE,http://www.musee-labenche.com ou www.brive.net,45.158437,1.535971
Musée du Président Jacques Chirac,,19800,SARRAN,http://www.museepresidentjchirac.fr,45.41758,1.922718
Musée de la Mémoire et des Industries Tullistes,"1, Rue du 9 juin 1944",19000,TULLE,Site de la ville,45.260245,1.751701
Musée du Pays d'Ussel,B.P. 63,19208,USSEL,http://www.ussel19.fr/culture-patrimoine/musee-du-pays-d-ussel.html,48.408029,6.860172
Musée Départemental de la Tapisserie,"16, Avenue des Lissiers

B.P. 89",23200,AUBUSSON,http://www.cite-tapisserie.fr,45.954471,2.1694
Musée d'Art et d'Archéologie,"Hôtel de la Sénatorerie

22, avenue de la Sénatorerie",23000,GUERET,http://www.ville-gueret.fr/culture/musee.php,46.166077,1.870637
Musée René Baubérot,"1, place Saint-Thyrse",87290,CHATEAUPONSAC,http://www.museechateauponsac.com,46.13125,1.274322
Musée Municipal des Beaux-Arts de Limoges - Palais de l'Evêché,"1, Place de l'Evêché",87000,LIMOGES,http://www.museebal.fr,45.828784,1.265445
Musée National Adrien Dubouché,"8 bis, Place Winston Churchill",87000,LIMOGES,http://www.musee-adriendubouche.fr,45.831405,1.254207
Musée Départemental d'Art Contemporain,Place du Château,87600,ROCHECHOUART,http://www.musee-rochechouart.com,45.821801,0.819893
Les Sources d'Hercule,"1, place Jean-Marie Keyser",54120,DENEUVRE,http://www.museehercule.com/,48.446385,6.734719
Musée de l'Histoire du Fer,"1, Avenue du Général de Gaulle

B.P. 15",54140,JARVILLE-LA-MALGRANGE,http://www.grand-nancy.org,48.597477,6.488578
Musée du Château de Montaigu,"167, Rue Lucien Galtier",54410,LANEUVEVILLE-DEVANT-NANCY,http://www.nancy.fr/transver/coord.htm#muslor - Site du Grand Nancy,48.665792,6.215554
Musée Municipal des Emaux et Faïences,"Port de France

Rue de la Manutention",54400,LONGWY,http://http//www.mairie-longwy.fr,49.522644,5.763706
Musée du Château de Lunéville,Place de la Deuxième Division de Cavalerie,54300,LUNEVILLE,http://www.chateauluneville.cg54.fr - http://www.chateaudeslumieres.com,48.594721,6.489897
Musée des Beaux-Arts de Nancy,"3, Place Stanislas

B.P. 218",54004,NANCY,http://www.mairie-nancy.fr,48.693507,6.182435
Musée de l'Ecole de Nancy,"36-38, rue du Sergent Blandan",54000,NANCY,http://www.ecole-de-nancy.com,48.680494,6.166351
Musée de Zoologie - Aquarium Tropical,"34, Rue Sainte-Catherine",54000,NANCY,http://www.man.uhp-nancy.fr,48.695072,6.188467
"Musée ""au Fil du Papier""","Hôtel de la Monnaie

13, Rue Magot de Rogéville",54700,PONT-A-MOUSSON,Site de la ville,48.901615,6.056259
Musée d'Art et d'Histoire de Toul,"25, Rue Gouvion Saint-Cyr",54200,TOUL,http://www.toul.fr,48.678544,5.89134
Musée Barrois,Esplanade du Château,55000,BAR-LE-DUC,site de la ville - http://www.barleduc.fr,48.771797,5.156074
Musée de la Céramique et de l'Ivoire,"7, Avenue Carcano",55200,COMMERCY,,48.763489,5.589497
Musée d'Art Sacré de la Meuse,Rue du Palais de Justice,55300,SAINT-MIHIEL,http://otsisaintmihiel.e-monsite.com,48.888549,5.540884
Musée Départemental Raymond Poincaré,Clos Raymond Poincaré,55300,SAMPIGNY,http://www.cg55.fr,48.824129,5.510779
Musée de la Bière et du Pays de Stenay,Rue de la Citadelle,55700,STENAY,http://www.musee-de-la-biere.com,49.489009,5.187268
Musée d'Argonne,"2, Rue Louis XVI",55270,VARENNES-EN-ARGONNE,site de la conservation : www.cg55.fr,49.226174,5.0333
Musée Jeanne d'Arc,Hôtel de Ville,55140,VAUCOULEURS,,48.601979,5.666467
Musée de la Princerie,"16, Rue de la Belle Vierge",55100,VERDUN,http://www.musee-princerie.fr,49.161059,5.382439
Musée Départemental de la Guerre de 70,"11, Rue de Metz",57130,GRAVELOTTE,http://www.cg57.fr/vivrelamoselle/Pages/Tourisme/museesdepartementaux/MuseeGravelotte.aspx,49.112222,6.026282
Musée Départemental du Sel,Porte de France,57630,MARSAL,Site du conseil général - www.mosellepassion.fr,48.788526,6.60656
Maison du Verre et du Cristal,Place Robert Schumann,57960,MEISENTHAL,http://www.musee-verre.webmuseo.com/,48.964887,7.35253
Musées de la Cour d'Or,"2, Rue du Haut Poirier",57000,METZ,http://www.musee.metzmetropole.fr,49.121051,6.177978
Centre Pompidou de Metz,"1, Parvis des Droits-de-l'Homme

CS 90490",57020,METZ Cedex 1,http://www.centrepompidou-metz.fr,43.550885,-0.98388
Musée de la Mine - Carreau Wendel,Parc Explor Wendel,57540,PETITE-ROSSELLE,http://www.musee-les-mineurs.fr,49.21292,6.872911
Musée Militaire et Erckmann-Chatrian,"Hôtel de Ville

Place d’Armes",57370,PHALSBOURG,http://www.phalsbourg.fr/La_culture__les_loisirs/Le_Musee,48.767,7.258837
Musée du Pays de Sarrebourg,Rue de la Paix,57400,SARREBOURG,http://www.ville-sarrebourg.fr/Culture/Musee,48.734998,7.055235
"Jardin d'Hiver, Musée de La Faïence","15-17, Rue Poincaré",57200,SARREGUEMINES,http://www.sarreguemines-museum.com,49.109069,7.070473
Moulin de la Blies - Musée des Techniques Faïencières,"125, Avenue de la Blies",57200,SARREGUEMINES,http://www.sarreguemines-museum.com,49.1265,7.080124
La Tour aux Puces - Musée du Pays Thionvillois,"Cour du Château

B.P. 30352",57125,THIONVILLE Cedex,http://www.tourauxpuces.com,48.589574,6.50558
Musée de l'Image,42 quai de Dogneville,88000,EPINAL,http://www.museedelimage.fr,48.183628,6.445992
Musée Départemental d'Art Ancien et Contemporain,"1, Place Lagarde

B.P. 436",88011,EPINAL Cedex,Site du conseil général - www.vosges.fr,48.17326,6.446595
Musée Louis Français,"30, Avenue Louis Français",88370,PLOMBIERES-LES-BAINS,site de la ville,47.964095,6.458494
Musée Charles de Bruyères,"70, Rue Charles de Gaulle",88200,REMIREMONT,http://www.remiremont.fr/culture/musees.php,48.016142,6.593289
Musée Charles Friry,"12, Rue du Général Humbert",88200,REMIREMONT,http://www.remiremont.fr/culture/musees.php,48.015174,6.590031
Musée Pierre Noël - Musée de la Vie dans les Hautes-Vosges,"11, rue Saint-Charles",88100,SAINT-DIE-DES-VOSGES,Site de la ville - www.ville-saintdie.fr,48.288282,6.951464
Musée Départemental d'Archéologie Précolombienne et de Préhistoire de la Martinique,"9, rue de la Liberté",97200,FORT-DE-FRANCE,http://www.cg972.fr/mdap,14.603311,-61.068677
Musée Régional d'Histoire et d'Ethnologie,"10, Boulevard du Général de Gaulle",97200,FORT-DE-FRANCE - MARTINIQUE-,http://www.cr-martinique.fr/francais/institution/serv-region/musees/histoire_ethno.htm,14.606869,-61.06693
Musée de La Canne,Quartier Vatable,97229,LES TROIS ILETS,http://www.zananas-martinique.com/martinique-patrimoine/maison-de-la-canne.html,14.533769,-61.029966
Ecomusée de la Martinique,Anse Figuier,97211,RIVIERE-PILOTE,/www.cr-martinique.fr/francais/institution/serv-region/musees/ecomusee.htm,14.466475,-60.904035
Musée Volcanologique Franck Arnold Perret,Rue Victor Hugo,97250,SAINT-PIERRE,http://www.saintpierre-martinique.fr,14.744214,-61.176234
Musée Départemental de l'Ariège,Rue du Rocher,09000,FOIX,http://www.sesta.fr ou www.ariege.com/chateaufoix/index.html,42.965919,1.605311
Musée du Textile et du Peigne en Corne,"65, Rue Jean Jaurès",09300,LAVELANET,http://www.paysdolmes.org - www.geocities.com/amtpc2000,42.929884,1.844322
Musée de la Préhistoire,Place de l'Eglise,09290,LE MAS D'AZIL,http://www.grotte-masdazil.com,43.079919,1.36027
Musée de la Forge,Route de Paris,09330,MONTGAILHARD,http://www.sesta.fr,42.940991,1.630394
Musée d'Archéologie,"32, Village",09300,MONTSEGUR,Site de la ville : www.citaenet.com/montsegur,42.870856,1.832753
Musée du Palais des Evêques,Route de Montjoie,09190,SAINT-LIZIER,Site du Service d'exploitation des sites touristiques de l'Ariège - www.sesta.fr ou www.grands-sites-ariege.fr,43.001426,1.144943
Musée Régional de Géologie Pierre Vetter,Avenue Paul Ramadier,12300,DECAZEVILLE,http://www.decazeville.fr ou www.musees-midi-pyrenees.fr,44.555583,2.266179
"Musée des Mœurs et Coutumes, Musée du Rouergue",Place Frontin,12500,ESPALION,http://www.aveyron-culture.com,44.520844,2.760388
Musée Joseph Vaylet,"Ancienne église St. Jean Baptiste

35, rue Droite",12500,ESPALION,http://www.tourisme-espalion.fr - http://www.museeduscaphandre.com,44.520788,2.762169
Musée Municipal de Millau,"Hôtel de Pégayolles

Place du Maréchal Foch",12100,MILLAU,http://www.millauculture.fr ou www.ot-millau.fr,44.0978,3.080769
Musée des Beaux-Arts Denys Puech,Place Georges Clemenceau,12000,RODEZ,http://musee-denys-puech.grand-rodez.com/,44.349215,2.57811
Musée Fenaille,"14, Place Eugène Raynaldy",12000,RODEZ,http://www.musee-fenaille.com ou www.grandrodez.com,44.349201,2.576408
Musée Municipal d'archéologie,Rue Saint-Pierre,12250,ROQUEFORT-SUR-SOULZON,,43.975028,2.99165
Musée des Arts et Métiers,,12330,SALLES-LA-SOURCE,http://www.musees-aveyron.fr,44.434095,2.487917
Musée Municipal Urbain Cabrol,Place de la Fontaine,12200,VILLEFRANCHE-DE-ROUERGUE,http://www.villefranchederouergue.fr,44.351453,2.03681
Musée des Jacobins,"4, Place Louis Blanc",32000,AUCH,http://www.musee-jacobins.auch.fr www.auch-tourisme.com ou site de la mairie,43.647171,0.587482
Musée de l'Armagnac,"2, Rue Jules Ferry",32100,CONDOM,site du département : www.gers-gascogne.com,43.960712,0.372842
Musée Archéologique,Place de la République,32180,EAUZE,site du département : www.gers-gascogne.com ou site de la mairie,43.861183,0.101447
Musée Campanaire,Place de l'Hôtel de ville,32600,L'ISLE JOURDAIN,site du département : www.gers-gascogne.com,43.612994,1.081929
Musée Joseph Abeilhe,"Mairie de Marciac

19, Place de l'Hôtel de Ville",32230,MARCIAC,Site de la région : www.musees-midi-pyrenees.fr,43.524344,0.16097
Musée des Beaux-Arts et des Arts Décoratifs,"13, rue de l'Evêché",32300,MIRANDE,site du département : www.gers-gascogne.com,43.515315,0.403452
Musée de Préhistoire,Avenue de Benabarre,31420,AURIGNAC,http://www.musee-aurignacien.com,43.216167,0.88003
Musée du Pays de Luchon,"18, Allée d'Etigny",31110,BAGNERES-DE-LUCHON,http://www.luchon.com ou www.mairies-luchon.fr -www.musees-midi-pyrenees.fr,42.78928,0.592262
Musée Municipal,Place Henri Dulion,31220,MARTRES-TOLOSANE,http://www.tourisme-martres-tolosane.fr,43.1989,1.010796
Musée Municipal d'Art et d'Histoire,"6, place de Mas Saint Pierre",31800,SAINT-GAUDENS,http://www.mairiestgaudens.fr,43.107637,0.725625
Musée des Augustins,"21, rue de Metz",31000,TOULOUSE,http://www.augustins.org,43.600562,1.445904
Musée Saint-Raymond,Place Saint Sernin,31000,TOULOUSE,http://www.SaintRaymond.toulouse.fr,43.608498,1.442139
Musée des Transports et des Communications,"93, avenue Jules Julien",31400,TOULOUSE,http://asptuit.free.fr,43.577035,1.450597
Musée du Vieux Toulouse,"Hôtel Dumay

7, Rue du May",31000,TOULOUSE,En projet,43.602262,1.443143
Musée Georges Labit,"17, rue du Japon",31400,TOULOUSE,,43.589735,1.458081
Musée Paul Dupuy,"13, Rue de la Pléau",31000,TOULOUSE,Site des musées de la région : www.musees-midi-pyrenees.fr/,43.596898,1.446935
"Les Abattoirs, Musée d'Art Moderne et Contemporain","76, allées Charles-de-Fitte",31300,TOULOUSE,http://www.lesabattoirs.org,43.600678,1.428998
Muséum d'Histoire Naturelle,"35, allées Jules Guesde",31000,TOULOUSE,http://www.museum.toulouse.fr,43.594236,1.449092
Musée Bigourdan du Vieux Moulin,Rue Hount-Blanque,65200,BAGNERES-DE-BIGORRE,,43.065592,0.15365
Musée Salies,Place des Thermes,65200,BAGNERES-DE-BIGORRE,http://www.museesbagneres.fr/,43.062205,0.147936
Muséum d'Histoire Naturelle,"7, Place des Thermes de Salut",65200,BAGNERES-DE-BIGORRE,http://www.museesbagneres.fr/,43.062516,0.146987
Musée Pyrénéen,Château fort,65100,LOURDES,http://www.chateaufort-lourdes.fr ou site de la ville - http://www.lourdes-visite.com/,43.095693,-0.048489
Musée Municipal,Presbytère,65120,LUZ-SAINT-SAUVEUR,,42.865782,0.001324
Musée-château Gaston Phébus,Château-Fort de Mauvezin,65130,MAUVEZIN,http://www.chateaudemauvezin.com,43.116342,0.278587
Musée Henri Martin,"792, Rue Emile Zola",46000,CAHORS,http://www.mairie-cahors.fr/musee,44.448506,1.438286
Musée d'Histoire de Figeac,"Rue Victor Delbos

Cour du Puy",46100,FIGEAC,http://www.musee-champollion.fr/,44.610842,2.035622
Musée Champollion - Les Ecriture du Monde,"4, Rue des Frères Champollion",46100,FIGEAC,http://www.musee-champollion.fr et site de la ville,44.609716,2.034747
Musée Murat,Place de Tolentino,46240,LABASTIDE MURAT,site de l'association des amis du musée,44.648438,1.568714
"Musée Archéologique ""Armand-Viré""",Rue de la Ville,46140,LUZECH,http://www.ville-luzech.fr/musee-archeologique-armand-vire-luzech,44.479699,1.285863
Musée Départemental de Cuzals,,46330,SAULIAC-SUR-CELE,http://www.museeduquercy.com,44.506456,1.706642
Musée de l'Automate,Place de l'Abbaye,46200,SOUILLAC,http://www.musee-automate.fr,44.894537,1.468386
Musée Municipal,Mairie,46110,VAYRAC,http://www.vayrac.fr/uxellodunum.php?lg=fr,44.942216,1.708576
Musée Eugénie et Maurice Guérin,Château de Cayla,81140,ANDILLAC,http://musee-cayla.tarn.fr/,44.009953,1.899242
Musée Jean Jaurès,"2, Place Pélisson",81100,CASTRES,http://www.ville-castres.fr ou www.musees-midi-pyrenees.fr/musees/centre-national-et-musee-jean-jaures/,43.607135,2.240474
Musée Charles Portal - Histoire et Patrimoine,"Porte des Ormeaux

1, Rue Saint-Michel",81170,CORDES-SUR-CIEL, http://musee-charles-portal.asso-web.com,44.063752,1.94934
Musée du protestantisme en Haut-Languedoc,"""La Ramade""",81260,FERRIERES,http://www.mpehl.org et www.musees-midi-pyrenees.fr,43.661945,2.448171
Musée de l'Abbaye Saint-Michel,Place Saint-Michel,81600,GAILLAC,site de la ville,43.897879,1.895779
Muséum d'histoire naturelle Philadelphe Thomas,Place Philadelphe Thomas,81600,GAILLAC,Site de la ville :  www.ville-gaillac.fr,43.89944,1.894093
Musée des Beaux-Arts,Avenue Dom-Vayssette,81600,GAILLAC,Site de la ville www.ville-gaillac.fr,43.894259,1.90185
Musée Départemental du Textile,Rue de la Rive,81270,LA-BASTIDE-ROUAIROUX,http://musee-textile.tarn.fr,43.476806,2.638362
Musée du Pays Vaurais,"1, rue Jouxaygues",81500,LAVAUR Cedex,http://www.musees-midi-pyrenees.fr/musees/musee-du-pays-vaurais,43.698317,1.82076
Musée Raymond Lafage,"10, Rue Victor Mazies",81310,LISLE-SUR-TARN,http://www.ville-lisle-sur-tarn.fr - http://musee.lislesurtarn.over-blog.fr/,43.852891,1.811372
Musée du Pays Rabastinois,"Mairie de Rabastens

2, Rue Amédée Clausade",81800,RABASTENS,Site de la région : www.musees-midi-pyrenees.fr/musees/musee-du-pays-rabastinois,43.820412,1.724788
Musée du Vieil Auvillar,"Mairie

Place de la Halle",82340,AUVILLAR,http://www.auvillar.com,44.070483,0.899587
Musée Théodore Calbet,"15, Rue Jean de Comère",82170,GRISOLLES,http://www.museecalbet.com,43.827651,1.294738
Musée des arts et traditions populaires,"4, Rue de l'Abbaye",82200,MOISSAC,,44.105697,1.085296
Musée d'Histoire Naturelle Victor Brun,"2, Place Antoine Bourdelle",82000,MONTAUBAN,http://www.museum.montauban.com/,44.017099,1.351385
Musée Ingres,BP 752,82013,MONTAUBAN Cedex,http://www.montauban.com,48.832951,2.296328
Musée de Préhistoire,"Hôtel de Ville

Place de la Mairie",82140,SAINT-ANTONIN-NOBLE-VAL,Site de la ville : www.saint-antonin-noble-val.com,44.150801,1.755919
Musée Théophile Jouglet,"215, Avenue Anatole-France",59410,ANZIN,site de la ville ou www.mediatheque-anzin.fr,50.372495,3.501834
Musée d'Histoire et d'Archéologie,BP 90,59440,AVESNES-SUR-HELPE,http://www.annuaire-mairie.fr/musee-de-la-societe-archeologique-d-avesnes-sur-helpe.html#musee,50.121812,3.92658
Musée Benoît de Puydt,"24, Rue du Musée",59270,BAILLEUL,Site de la ville,50.740715,2.734399
Musée du Mont-de-Piété,"1, Rue du Mont-de-Piété",59380,BERGUES,http://www.musee-bergues.fr,50.969087,2.430391
Musée de l'Ostrevant,"192, rue Edouard Lalo",59111,BOUCHAIN,http://museedostrevant.canalblog.com/,50.284651,3.311321
Musée Municipal de Cambrai,"15, Rue de l'Epée",59400,CAMBRAI,http://www.villedecambrai.com/culture/musee.html,50.17347,3.229635
Musée Diocésain d'Art Sacré,"Service de la conservation du patrimoine culturel

11, Rue du Grand Séminaire - CS 80149",59403,CAMBRAI Cedex,http://www.liturgiecatholique.fr/Musee-diocesain-d-Art-Sacre-du.html ou http://archives.cathocambrai.com/,50.17298,3.231369
Musée d'Archéologie et d'Histoire Locale,"9, Place Wilson",59220,DENAIN,Site de la ville - www.ville-denain.fr,50.327328,3.400252
Musée de la Chartreuse,"130, Rue des Chartreux",59500,DOUAI,http://www.museedelachartreuse.fr,50.374404,3.07548
Musée Portuaire,"Entrepôt des Tabacs

9, Quai de la Citadelle",59140,DUNKERQUE,http://www.museeportuaire.fr,51.037914,2.372174
Musée Municipal d'Escaudain,Rue Paul Bert,59124,ESCAUDAIN,http//clec.free.fr,50.327774,3.34373
Musée du Dessin et de l'Estampe Originale,"Château Arsenal

Place Charles Valentin",59820,GRAVELINES,http://www.ville-gravelines.fr,50.988054,2.128816
Musée Départemental Matisse,Palais Fénelon,59360,LE CATEAU-CAMBRESIS,http://www.cg59.fr ou www.tourisme-lecateau.fr/museematisse,50.103244,3.537306
Musée d'Histoire Naturelle et de Géologie,"19, rue de Bruxelles",59000,LILLE,http://www.mairie-lille.fr,50.626639,3.066546
Musée de l'Hospice Comtesse,"32, Rue de la Monnaie",59800,LILLE,http://www.mairie-lille.fr ou http://www.pba-lille.fr/spip.php?article167,50.641054,3.06294
Palais des Beaux-Arts de Lille,"18, bis rue de Valmy",59000,LILLE,http://www.pba-lille.fr ou site de la mairie http://www.mairie-lille.fr,50.630545,3.064941
Musée d'Histoire Locale de Marchiennes,Rue Corbineau,59870,MARCHIENNES,http://www.officedetourismemarchiennes.fr,50.407479,3.281263
Musée Henri Boez,"Hôtel de ville

BP 269",59607,MAUBEUGE Cedex,http://www.musenor.com,50.623845,3.071417
La Piscine - Musée d'Art et d'Industrie André Diligent,"24, rue des Champs",59100,ROUBAIX,http://www.roubaix-lapiscine.com,50.692479,3.166607
Musée Municipal,"Tour Abbatiale

Grand- Place",59230,SAINT-AMAND-LES-EAUX,Site de la ville,50.448798,3.427859
Musée-Atelier du Verre,"1, Rue du général de Gaulle

B.P. 2",59216,SARS-POTERIES,site du département - www.nordmag.com,47.52711,-2.769245
MUba Eugène Leroy/Tourcoing,"2, Rue Paul Doumer",59200,TOURCOING,http://www.muba-tourcoing.fr/,50.724554,3.162819
Musée des Beaux-Arts,Boulevard Watteau,59300,VALENCIENNES,http://www.valenciennes.fr(culture/musee),50.35607,3.530995
LAM - Lille Métropole Musée d'Art Moderne d'Art Contemporain et d'Art Brut,"1, Allée du Musée",59650,VILLENEUVE-D'ASCQ,http://www.musee-lam.fr,50.637497,3.148587
Musée des Beaux-Arts,"Ancienne Abbaye Saint-Vaast

22, Rue Paul Doumer",62000,ARRAS,http://www.musenor.org ou www.arras.fr/culture/musee-des-beaux-arts.html,50.291624,2.77326
Musée Communautaire Opale-Sud,"60, Rue de l'Impératrice",62600,BERCK-SUR-MER,http://www.opale-sud.com,50.405092,1.567687
Musée Régional d'Ethnologie,"211, avenue Kennedy",62400,BETHUNE,Site de la ville,50.536456,2.648235
Château-Musée de Boulogne-Sur-Mer,Rue de Bernet,62200,BOULOGNE-SUR-MER,http://www.ville-boulogne-sur-mer.fr/château-musee ou  musenor,50.72557,1.616458
Muséum d'Histoire Naturelle,"115, Boulevard Eurvin",62317,BOULOGNE-SUR-MER,,50.723398,1.615809
Musée des Beaux-Arts et de la Dentelle,"25, rue Richelieu",62100,CALAIS,http://www.musee.calais.fr,50.956724,1.851871
Musée Quentovic,"8, Place du Général de Gaulle",62630,ETAPLES-SUR-MER,http://www.musee-quentovic.fr/,50.513895,1.637621
Musée d'Histoire et d'Archéologie,"50, rue André Deprez",62440,HARNES,Site de la ville : www.ville-harnes.fr/Patrimoine,50.447577,2.91073
Musée Municipal,Avenue du Golf,62520,LE TOUQUET-PARIS-PLAGE,http://www.letouquet.com ou http://www.letouquet-musee.com/,50.506399,1.602007
Musée d'Art et d'Histoire Roger Rodière,Hôtel Saint-Walloy,62170,MONTREUIL-SUR-MER,http://www.2p2m.org,50.462757,1.76407
Musée de l'Hôtel Sandelin,"14, Rue Carnot",62500,SAINT-OMER,http://www.musees-ville-saint-omer.com,50.749007,2.254521
Musée Henri Dupuis,"9, Rue Henri Dupuis",62500,SAINT-OMER,m3.dnsalias.com/sandelin - http://www.musenor.com/Les-Musees/Saint-Omer-Musee-Henri-Dupuis,50.748349,2.251197
Musée Jean-Charles Cazin,"84, Grand' Place Foch",62830,SAMER,site de la ville - www.villesamer.fr,50.63954,1.745547
Musée du Débarquement,Place du 6 Juin,14117,ARROMANCHES,http://www.musee-arromanches.fr,49.340234,-0.622108
Musée d'Art et d'Histoire Baron Gérard,37 rue du Bienvenu,14400,BAYEUX,http://www.bayeuxmuseum.com/mahb.html,49.276158,-0.703671
Musée Langlois,"Mairie

13, rue du Paradis",14950,BEAUMONT-EN-AUGE,,49.278234,0.110532
Musée de la Poste et des Techniques de communication,"52, Rue Saint-Pierre",14000,CAEN,http://www.caen.fr/museedelaposte/,49.183359,-0.363538
Musée de la Société des Antiquaires,,14000,CAEN,,49.185369,-0.349611
Musée de Normandie,Le Château,14000,CAEN,http://www.musee-de-normandie.eu,49.16202,-0.345097
Musée des Beaux-Arts,Le Château,14000,CAEN,http://www.mba.caen.fr,49.16202,-0.345097
Musée de la Mine,Rue de la Fosse Frandemiche,14330,LE MOLAY-LITTRY,http://www.ville-molay-littry.fr,49.24317,-0.87738
Musée de la Meunerie - Moulin de Marcy,Moulin de Marcy,14330,LE MOLAY-LITTRY,http://www.ville-molay-littry.fr,49.227596,-0.9048
Musée d'Art et d'Histoire de Lisieux,"38, Boulevard Pasteur",14100,LISIEUX,http://www.ville-lisieux.fr/23-Musee-d-Art-et-d-Histoire.html,49.144562,0.219323
Musée Municipal,"107, rue Grande",14290,ORBEC,site de la mairie - http://www.mairie-orbec.fr,49.022096,0.406804
Musée du Château,Château de Pontécoulant,14110,PONTECOULANT,http://www.condeintercom.fr,48.896917,-0.588433
Musée des Techniques Fromagères,Rue Saint Benoît,14170,SAINT-PIERRE-SUR-DIVES,,49.019523,-0.033256
Musée de Trouville - Villa Montebello,"64, Rue du Général Leclerc",14360,TROUVILLE-SUR-MER,http://www.trouville.fr/pages/03maville/culture.html,49.37135,0.083538
Musée et Sites archéologiques de Vieux-la-Romaine,"13, Chemin Haussé",14930,VIEUX,Site du conseil général,49.105688,-0.437702
Musée Municipal,"2, Place Sainte-Anne

B.P. 62",14502,VIRE Cedex 02,http://www.cc-vire.fr/web/le_musee.html,48.835996,-0.888245
Musée Municipal d'Avranches,Place Jean de Saint Avit,50300,AVRANCHES,,48.678874,-1.350061
Maison de la Pomme et de la Poire,La Logeraie,50720,BARENTON,http://www.parc-naturel-normandie-maine.fr ou www.musees-basse-normandie.fr,48.587967,-0.806027
Musée du Vieux Château,Place de la Mairie,50260,BRICQUEBEC,http://www.mairie-bricquebec.fr/,49.470838,-1.633678
Musée de la Guerre et de la Libération,"Fort du Roule

Montée des Résistants",50100,CHERBOURG-OCTEVILLE,http://www.ville-cherbourg.fr,49.629987,-1.61425
Musée Thomas Henry,"4, Rue Vastel",50100,CHERBOURG-OCTEVILLE,http://www.ville-cherbourg.fr,49.636993,-1.622034
Musée Quesnel-Morinière,"2, Rue Quesnel-Morinière",50200,COUTANCES,http://www.ville-coutances.fr/musee.php,49.047263,-1.446668
Musée du Vieux Granville,"2, Rue Lecarpentier",50400,GRANVILLE,http://www.ville-granville.fr (site de la ville),48.837248,-1.602814
Musée Richard Anacréon,Place de l'Ithsme - La Haute Ville,50400,GRANVILLE,http://www.ville-granville.fr,48.835533,-1.584192
Musée Christian Dior,"Villa les Rhumbs

Route d'Estouteville",50400,GRANVILLE,http://www.museechristiandior.com,48.842113,-1.592429
"Musée du Bocage Normand, ferme du bois Jugan","Ferme de Boisjugan

Boulevard de la Commune",50000,SAINT-LO,http://www.saint-lo.fr,49.104029,-1.076496
Musée du Granit,Le Bourg,50670,SAINT-MICHEL-DE-MONTJOIE,http://www.sitesetmusees.cg50.fr,48.761142,-1.029377
Musée Barbey d'Aurevilly,"66, Rue Bottin Desylles",50390,SAINT-SAUVEUR-LE-VICOMTE,http://www.stlo.unicaen.fr/museebarbeydaurevilly,49.384496,-1.533002
Ferme-Musée du Cotentin,Chemin de Beauvais,50480,SAINTE-MERE-EGLISE,,49.416129,-1.314998
Musée Régional du Cidre et du Calvados,Rue du Petit Versailles,50700,VALOGNES,Site de la Mairie : www.mairie-valognes.fr,49.505988,-1.47042
Musée de la Poeslerie,"Cour du Foyer

25, Rue Général Huard",50800,VILLEDIEU-LES-POELES,http://www.museesvilledieu.sitew.com,48.840754,-1.221648
Musée Municipal d'Archéologie,"Service Patrimoine

44, Place Fulbert de Beina",61300,L'AIGLE,http://www.ville-laigle.fr,48.764698,0.629018
Musée Municipal - Musée du Jouet,"32, Rue de la Victoire",61600,LA FERTE-MACE,site de la ville,48.590293,-0.359226
Musée du Percheron,"3, Rue du Portail Saint-Denis",61400,MORTAGNE-AU-PERCHE,,48.52186,0.54697
Musée Départemental des Arts et Traditions Populaires du Perche,Prieuré de Sainte-Gaubruge,61130,SAINT-CYR LA ROSIERE,http://www.ecomuseeduperche.fr,48.324467,0.65589
Musée Départemental d'Art Sacré,Place du Général de Gaulle,61500,SEES,http://www.cg61.fr/musee-art-religieux-sees.html,48.605419,0.171871
Musée Artisanal et Industriel d'Instruments à Vent,"2, Rue d'Ivry",27750,LA COUTURE-BOUSSEY,http://www.lacoutureboussey.com/default.asp?file=pg25-1_fr,48.897628,1.407809
Musée Municipal Nicolas Poussin,Rue Sainte-Clotilde,27700,LES ANDELYS,http://www.museenicolaspoussin.fr,49.245779,1.420095
Musée Municipal,"19, Rue Pierre Mendes France

B.P. 621",27400,LOUVIERS Cedex,Site des musées de Haute-Normandie ou site de la ville,49.214044,1.169269
Musée Alfred Canel,"84, Rue de la République",27500,PONT-AUDEMER,http://www.ville-pont-audemer.fr ou www.musee-haute-normandie.fr,49.357088,0.516022
Musée Alphonse-Georges Poulain,"12, Rue du Pont",27200,VERNON,site de la ville www.ville-vernon27.fr/musee/,49.094855,1.484927
Musée Municipal,"Hôtel de Ville

Place de la Libération",76360,BARENTIN,Site de la ville : www.ville-barentin.fr,49.545721,0.952516
Pavillon Flaubert,"18, Quai Gustave Flaubert

Dieppedalle-Croisset",76380,CANTELEU,http://www.litterature-lieux.com/fiche-site-80.htm - Site des musées de la région,49.435017,1.031203
Maison des Templiers,"1, Rue Thomas-Bazin",76490,CAUDEBEC-EN-CAUX,site des musées de la région,49.52525,0.725969
Château-Musée de Dieppe,Rue de Chastes,76200,DIEPPE,http://www.mairie-dieppe.fr ou www.musees-haute-normandie.fr,49.923949,1.07162
Musée d'Elbeuf,"La Fabrique des Savoirs - LA CREA

7 cours Gambetta",76500,ELBEUF,http://www.la-crea.fr ou Site des musées de la région,49.28505,1.006272
Musée Louis-Philippe du Château d'Eu,Place d'Orléans,76260,EU,http://www.louis-philippe.eu - www.ville-eu.fr ou site des musées de la région,50.048831,1.418363
Musée des Arts & de l'Enfance,"21, Rue Alexandre Legros",76400,FECAMP,http://www.fecamp.com,49.756192,0.377521
Musée du Prieuré,"Mairie d'Harfleur

50, Rue de la République 

B.P. 97",76700,HARFLEUR,site de la région,49.919318,1.075715
Muséum d'Histoire Naturelle,Place du Vieux Marché,76600,LE HAVRE,http://www.museum-lehavre.fr ou site de la ville,49.487581,0.108279
Musée du Prieuré de Graville,"1, Rue Elisée Reclus",76600,LE HAVRE,Site de la ville -  www.ville-lehavre.fr,49.502468,0.162885
La Maison de l'Armateur,"3, Quai de l'Ile

(Quartier Saint-François)",76600,LE HAVRE,Site de la ville - www.ville-lehavre.fr,49.486876,0.112619
Musée d'Art Moderne André Malraux - MuMa,"2, boulevard Clemenceau",76600,LE HAVRE,http://www.muma-lehavre.fr,49.484796,0.102188
Musée de l'Hôtel Dubocage de Bléville,"1, Rue Jérôme Bellarmarto",76600,LE HAVRE,Site de la ville : www.ville-lehavre.fr,49.488697,0.114414
Musée Départemental Pierre Corneille,"502, Rue Pierre Corneille",76650,LE PETIT-COURONNE,http://www.museepierrecorneille.fr,49.389368,1.0216
Musée des Traditions et Arts Normands,Château de Martainville,76116,MARTAINVILLE-EPREVILLE,http://www.chateaudemartainville.fr,49.460105,1.297348
Musée des Sapeurs-Pompiers de France,Rue Baron Bigot,76710,MONTVILLE,http://www.musee-sapeurs-pompiers.org - www.mairie-montville.fr,49.54688,1.076136
Musée Mathon-Durand,Grande rue St-Pierre,76270,NEUFCHATEL-EN-BRAY,site des musées de la région,49.733325,1.433587
Musée Industriel de la Corderie Vallois,"185, Route de Dieppe",76960,NOTRE-DAME-DE-BONDEVILLE,http://www.corderievallois.fr,49.494507,1.048567
Musée National de l'Education,"CANOPE

6, Rue de Bihorel",76000,ROUEN,http://www.reseau-canope.fr/musee/,49.448524,1.102602
Musée des Antiquités de la Seine-Maritime,"198, Rue Beauvoisine",76000,ROUEN,http://www.museedesantiquites.fr,49.447268,1.098932
Musée Flaubert et d'Histoire de la Médecine,"Ancien Hôtel-Dieu

51, rue de Lecat",76000,ROUEN,http://www.rouen.fr/medecine ou http://www3.chu-rouen.fr/Internet/connaitreCHU/culture/musee_flaubert,49.445232,1.081736
Musée Le Secq des Tournelles,"2, rue Jacques Villon",76000,ROUEN,http://www.rouen-musees.com,49.444259,1.094815
Muséum d'Histoire Naturelle,"198, Rue Beauvoisine",76000,ROUEN,Site de la ville,49.447268,1.098932
Musée de la Céramique,"1, rue Faucon",76000,ROUEN,http://www.rouen-musees.com,49.445543,1.093846
Musée des Beaux-Arts,"1, Place restout",76000,ROUEN,http://www.rouen-musees.com,49.445222,1.094076
Musée-Maison Natale Pierre Corneille,"Bibliothèques de Rouen

3, rue Jacques Villon",76043,ROUEN Cedex 1,Site des musées de la région ou www.rouen.fr/corneille ou www.rouen-histoire.com/Corneille/,49.445148,1.094521
Musée Victor Hugo,Quai Victor Hugo,76490,VILLEQUIER,http://www.museevictorhugo.fr,49.510304,0.672863
Musée Municipal des Ivoires,"Office de Tourisme d'Yvetot et sa Région

8, Place Maréchal Joffre",76190,YVETOT,Site de l'OT - www.tourisme-yvetot.fr,49.617332,0.754906
Musée des Marais Salant,"29 bis, Rue Pasteur",44740,BATZ-SUR-MER,http://www.cap-atlantique.fr/tourisme-loisirs/Musee/,47.278542,-2.478054
"Musée de la Fève, Crèches et Traditions Populaires","2,  Place Jean Guihard",44130,BLAIN,http://www.musee-de-blain.fr/accueil2.htm,47.475727,-1.764575
Musée du Pays de Retz,"6, Rue des Moines

B.P. 14",44580,BOURGNEUF-EN-RETZ,http://www.museepaysderetz.com,47.042318,-1.952164
Musée du Pays de Guérande et de la Porte Saint Michel,"Porte Saint-Michel

CS 85139",44351,GUERANDE Cedex,site de la ville - www.ville-guerande.fr,47.327509,-2.428149
Musée du Vignoble Nantais,"82, Rue Pierre Abélard",44330,LE PALLET,http://www.musee-vignoble-nantais.eu,47.134414,-1.329883
Musée des Beaux-Arts de Nantes,"10, Rue Georges Clémenceau",44000,NANTES,http://www.museedesbeauxarts.nantes.fr,47.219276,-1.547096
Muséum d'Histoire Naturelle de Nantes,"12, Rue Voltaire",44000,NANTES,http://www.museum.nantes.fr,47.212387,-1.564651
Musée du Château des Ducs de Bretagne,"4, Place Marc Elder",44000,NANTES,http://www.château-nantes.fr,47.216353,-1.549389
Musée  Départemental Dobrée,"18, Rue Voltaire

B.P. 40 415",44004,NANTES Cedex 1,http://www.loire-atlantique.fr ou www.cg44.fr ou www.culture.cg44.fr,47.211788,-1.566123
Musées du Parc Naturel Régional de Brière,"177, Île de Fedrun",44720,SAINT-JOACHIM,http://www.parc-naturel-briere.fr,47.376078,-2.211119
Musée du Chaume/Kerhinet - PNR Brière,Village de Kerhinet,44410,SAINT-LYPHARD,http://www.parc-naturel-briere.fr,47.363725,-2.34928
Maison de l'Eclusier /Parc Naturel Régional de Brière,"Rozé

Place des Eclusiers",44550,SAINT-MALO DE GUERSAC,http://www.parc-naturel-briere.fr,47.357542,-2.184789
Musée Jean Lurcat et de la Tapisserie Contemporaine,"Direction des musées d'Angers

14, Rue du Musée",49100,ANGERS,Site de la ville,47.469132,-0.554372
Galerie David d'Angers,"Direction des musées d'Angers

14, Rue du Musée",49100,ANGERS,http://www.angers.fr/mba,47.469132,-0.554372
Musée des Beaux-Arts,"Direction des musées d'Angers

14, Rue du Musée",49100,ANGERS,http://www.angers.fr/mba,47.469132,-0.554372
Musée Pincé,32 bis rue Lenepveu,49100,ANGERS,Site de la ville,47.471767,-0.551841
Muséum des Sciences Naturelles,"43, Rue Jules Guitton",49100,ANGERS,http://www.ville-angers.fr/museum,47.473475,-0.546412
Musée d'Art et d'Histoire,"Château du Roi René d'Anjou

place de l'Europe",49150,BAUGE,http://www.damm49.fr,47.542018,-0.104489
Musée Joseph Denais,"5, Place Notre-Dame",49250,BEAUFORT-EN-VALLEE,http://www.damm49.fr,47.44022,-0.217749
Musée du Textile,Rue du Docteur Roux,49300,CHOLET,http://www.museedutextile.com ou www.ville-cholet.fr/musee-textile.php,47.069587,-0.897687
Musée d'Art et d'Histoire,"27, Avenue de l'Abreuvoir",49300,CHOLET,Site de la ville : www.ville-cholet.fr/musee-art-histoire.php,47.058385,-0.882284
Musée Jules-Desbois,"1, Place Jules-Desbois",49390,PARCAY-LES-PINS,http://www.musee-julesdesbois.fr ou www.damm49.fr,47.436645,0.159784
Château-Musée,"Hôtel de Ville

Rue Molière - CS 54006",49408,SAUMUR Cedex,http://www.chateau-saumur.com,47.260647,-0.076544
Musée de l'Ardoise,"32, Chemin de la Maraîchère",49800,TRELAZE,http://www.lemuseedelardoise.fr,47.450792,-0.491518
Musée des Tisserands Mayennais,Place Billard de Veaux,53300,AMBRIERES-LES-VALLEES,Site de la ville,48.403045,-0.630604
Musée d'Art et d'Archéologie Hôtel Fouquet,"2, Rue Jean Bourré",53200,CHATEAU-GONTIER,http://patrimoine.chateaugontier.fr/,47.828879,-0.705135
Musée Communal Robert Tatin,"""La Maison des Champs""

La Frénouse",53230,COSSE-LE-VIVIEN,http://www.musee-robert-tatin.fr,47.936091,-0.897018
Musée Municipal,Place de l'Hôtel de Ville,53500,ERNEE,,48.296721,-0.93946
Musée Archéologique Départemental de Jublains,"13, Rue de la Libération

B.P. 1",53160,JUBLAINS,site du conseil général - www.cg53.fr ou lamayenne.fr,45.724344,3.340092
Musée des Sciences - CCSTI,"21, Rue du Douanier Rousseau",53000,LAVAL,http://www.multimedia.com/ccstidelaval,48.065559,-0.77102
Musée du Vieux Château,Place de la Trémoille,53000,LAVAL,Site de la mairie - http://musees.laval.fr,48.068827,-0.772298
Musée du Château,Place Juhel,53100,MAYENNE,http://www.museeduchateaudemayenne.fr,48.302373,-0.620107
Musée de l'Ardoise et de la Géologie,"""Longchamp""",53800,RENAZE,http://geocities.com/musardoise,47.79351,-1.041392
Musée Heurteloup-Chevalier,,72500,CHATEAU-DU-LOIR,,47.693176,0.417263
Musée Vert Véron-de-Forbonnais,"204, Avenue Jean-jaurès",72100,LE MANS,site de la ville,47.986868,0.208417
Musée de la Reine Bérengère,Rue de la Reine Bérengère,72000,LE MANS,Site de la ville - www.ville-lemans.fr,48.008972,0.197657
Musée de Tessé,"2, Avenue de Paderborn",72000,LE MANS,site de la ville - www.ville-lemans.fr,48.009934,0.204194
Musée Espace Faïence de Malicorne,"24, Rue Victor Hugo

B.P. 10",72270,MALICORNE-SUR-SARTHE,http://www.espacefaience.fr,50.723479,1.604654
